[
  {
    "id": "aws-us-east-1",
    "provider": "AWS",
    "providerType": "hyperscale-cloud",
    "name": "us-east-1",
    "displayName": "US East (N. Virginia)",
    "city": "Ashburn",
    "state": "VA",
    "country": "US",
    "lat": 39.0438,
    "lng": -77.4874,
    "region": "us-east",
    "availabilityZones": 6,
    "opened": 2006,
    "capacityMW": 500,
    "renewable": true,
    "pue": 1.2,
    "certifications": [
      "ISO 27001",
      "SOC 2",
      "PCI DSS"
    ],
    "metadata": {
      "url": "https://aws.amazon.com/about-aws/global-infrastructure/regions_az/",
      "statusPage": "https://health.aws.amazon.com/health/status"
    },
    "verified": true,
    "source": "official"
  },
  {
    "id": "aws-us-east-2",
    "provider": "AWS",
    "providerType": "hyperscale-cloud",
    "name": "us-east-2",
    "displayName": "US East (Ohio)",
    "city": "Columbus",
    "state": "OH",
    "country": "US",
    "lat": 39.9612,
    "lng": -82.9988,
    "region": "us-east",
    "availabilityZones": 3,
    "opened": 2016,
    "capacityMW": 300,
    "renewable": true,
    "pue": 1.18,
    "certifications": [
      "ISO 27001",
      "SOC 2"
    ],
    "metadata": {
      "url": "https://aws.amazon.com/about-aws/global-infrastructure/regions_az/",
      "statusPage": "https://health.aws.amazon.com/health/status"
    },
    "verified": true,
    "source": "official"
  },
  {
    "id": "aws-us-west-1",
    "provider": "AWS",
    "providerType": "hyperscale-cloud",
    "name": "us-west-1",
    "displayName": "US West (N. California)",
    "city": "San Francisco",
    "state": "CA",
    "country": "US",
    "lat": 37.7749,
    "lng": -122.4194,
    "region": "us-west",
    "availabilityZones": 2,
    "opened": 2009,
    "capacityMW": 200,
    "renewable": true,
    "pue": 1.15,
    "certifications": [
      "ISO 27001",
      "SOC 2"
    ],
    "metadata": {
      "url": "https://aws.amazon.com/about-aws/global-infrastructure/regions_az/",
      "statusPage": "https://health.aws.amazon.com/health/status"
    },
    "verified": true,
    "source": "official"
  },
  {
    "id": "aws-us-west-2",
    "provider": "AWS",
    "providerType": "hyperscale-cloud",
    "name": "us-west-2",
    "displayName": "US West (Oregon)",
    "city": "Portland",
    "state": "OR",
    "country": "US",
    "lat": 45.5152,
    "lng": -122.6784,
    "region": "us-west",
    "availabilityZones": 4,
    "opened": 2011,
    "capacityMW": 400,
    "renewable": true,
    "pue": 1.12,
    "certifications": [
      "ISO 27001",
      "SOC 2"
    ],
    "metadata": {
      "url": "https://aws.amazon.com/about-aws/global-infrastructure/regions_az/",
      "statusPage": "https://health.aws.amazon.com/health/status"
    },
    "verified": true,
    "source": "official"
  },
  {
    "id": "azure-eastus",
    "provider": "Azure",
    "providerType": "hyperscale-cloud",
    "name": "eastus",
    "displayName": "East US",
    "city": "Virginia",
    "state": "VA",
    "country": "US",
    "lat": 37.3719,
    "lng": -79.8164,
    "region": "us-east",
    "availabilityZones": 3,
    "opened": 2012,
    "capacityMW": 300,
    "renewable": true,
    "pue": 1.2,
    "certifications": [
      "ISO 27001",
      "SOC 2"
    ],
    "metadata": {
      "url": "https://azure.microsoft.com/en-us/explore/global-infrastructure/geographies/"
    },
    "verified": true,
    "source": "official"
  },
  {
    "id": "azure-eastus2",
    "provider": "Azure",
    "providerType": "hyperscale-cloud",
    "name": "eastus2",
    "displayName": "East US 2",
    "city": "Richmond",
    "state": "VA",
    "country": "US",
    "lat": 37.5407,
    "lng": -77.436,
    "region": "us-east",
    "availabilityZones": 3,
    "opened": 2014,
    "capacityMW": 250,
    "renewable": true,
    "pue": 1.18,
    "certifications": [
      "ISO 27001",
      "SOC 2"
    ],
    "metadata": {
      "url": "https://azure.microsoft.com/en-us/explore/global-infrastructure/geographies/"
    },
    "verified": true,
    "source": "official"
  },
  {
    "id": "azure-centralus",
    "provider": "Azure",
    "providerType": "hyperscale-cloud",
    "name": "centralus",
    "displayName": "Central US",
    "city": "Des Moines",
    "state": "IA",
    "country": "US",
    "lat": 41.5868,
    "lng": -93.625,
    "region": "us-central",
    "availabilityZones": 3,
    "opened": 2014,
    "capacityMW": 200,
    "renewable": true,
    "pue": 1.15,
    "certifications": [
      "ISO 27001",
      "SOC 2"
    ],
    "metadata": {
      "url": "https://azure.microsoft.com/en-us/explore/global-infrastructure/geographies/"
    },
    "verified": true,
    "source": "official"
  },
  {
    "id": "azure-westus",
    "provider": "Azure",
    "providerType": "hyperscale-cloud",
    "name": "westus",
    "displayName": "West US",
    "city": "San Francisco",
    "state": "CA",
    "country": "US",
    "lat": 37.7749,
    "lng": -122.4194,
    "region": "us-west",
    "availabilityZones": 3,
    "opened": 2012,
    "capacityMW": 180,
    "renewable": true,
    "pue": 1.2,
    "certifications": [
      "ISO 27001",
      "SOC 2"
    ],
    "metadata": {
      "url": "https://azure.microsoft.com/en-us/explore/global-infrastructure/geographies/"
    },
    "verified": true,
    "source": "official"
  },
  {
    "id": "azure-westus2",
    "provider": "Azure",
    "providerType": "hyperscale-cloud",
    "name": "westus2",
    "displayName": "West US 2",
    "city": "Seattle",
    "state": "WA",
    "country": "US",
    "lat": 47.6062,
    "lng": -122.3321,
    "region": "us-west",
    "availabilityZones": 3,
    "opened": 2016,
    "capacityMW": 220,
    "renewable": true,
    "pue": 1.16,
    "certifications": [
      "ISO 27001",
      "SOC 2"
    ],
    "metadata": {
      "url": "https://azure.microsoft.com/en-us/explore/global-infrastructure/geographies/"
    },
    "verified": true,
    "source": "official"
  },
  {
    "id": "gcp-us-east1",
    "provider": "GCP",
    "providerType": "hyperscale-cloud",
    "name": "us-east1",
    "displayName": "South Carolina",
    "city": "Moncks Corner",
    "state": "SC",
    "country": "US",
    "lat": 33.196,
    "lng": -80.0129,
    "region": "us-east",
    "availabilityZones": 3,
    "opened": 2015,
    "capacityMW": 200,
    "renewable": true,
    "pue": 1.1,
    "certifications": [
      "ISO 27001",
      "SOC 2"
    ],
    "metadata": {
      "url": "https://cloud.google.com/about/locations"
    },
    "verified": true,
    "source": "official"
  },
  {
    "id": "gcp-us-east4",
    "provider": "GCP",
    "providerType": "hyperscale-cloud",
    "name": "us-east4",
    "displayName": "Northern Virginia",
    "city": "Ashburn",
    "state": "VA",
    "country": "US",
    "lat": 39.0438,
    "lng": -77.4874,
    "region": "us-east",
    "availabilityZones": 3,
    "opened": 2017,
    "capacityMW": 180,
    "renewable": true,
    "pue": 1.12,
    "certifications": [
      "ISO 27001",
      "SOC 2"
    ],
    "metadata": {
      "url": "https://cloud.google.com/about/locations"
    },
    "verified": true,
    "source": "official"
  },
  {
    "id": "gcp-us-central1",
    "provider": "GCP",
    "providerType": "hyperscale-cloud",
    "name": "us-central1",
    "displayName": "Iowa",
    "city": "Council Bluffs",
    "state": "IA",
    "country": "US",
    "lat": 41.2619,
    "lng": -95.8608,
    "region": "us-central",
    "availabilityZones": 4,
    "opened": 2010,
    "capacityMW": 300,
    "renewable": true,
    "pue": 1.09,
    "certifications": [
      "ISO 27001",
      "SOC 2"
    ],
    "metadata": {
      "url": "https://cloud.google.com/about/locations"
    },
    "verified": true,
    "source": "official"
  },
  {
    "id": "gcp-us-west1",
    "provider": "GCP",
    "providerType": "hyperscale-cloud",
    "name": "us-west1",
    "displayName": "Oregon",
    "city": "The Dalles",
    "state": "OR",
    "country": "US",
    "lat": 45.5946,
    "lng": -121.1787,
    "region": "us-west",
    "availabilityZones": 3,
    "opened": 2011,
    "capacityMW": 250,
    "renewable": true,
    "pue": 1.08,
    "certifications": [
      "ISO 27001",
      "SOC 2"
    ],
    "metadata": {
      "url": "https://cloud.google.com/about/locations"
    },
    "verified": true,
    "source": "official"
  },
  {
    "id": "gcp-us-west2",
    "provider": "GCP",
    "providerType": "hyperscale-cloud",
    "name": "us-west2",
    "displayName": "Los Angeles",
    "city": "Los Angeles",
    "state": "CA",
    "country": "US",
    "lat": 34.0522,
    "lng": -118.2437,
    "region": "us-west",
    "availabilityZones": 3,
    "opened": 2018,
    "capacityMW": 150,
    "renewable": true,
    "pue": 1.14,
    "certifications": [
      "ISO 27001",
      "SOC 2"
    ],
    "metadata": {
      "url": "https://cloud.google.com/about/locations"
    },
    "verified": true,
    "source": "official"
  },
  {
    "id": "meta-prineville",
    "provider": "Meta",
    "providerType": "tech-giant",
    "name": "Prineville Data Center",
    "displayName": "Prineville, Oregon",
    "city": "Prineville",
    "state": "OR",
    "country": "US",
    "lat": 44.2999,
    "lng": -120.8342,
    "region": "us-west",
    "opened": 2011,
    "capacityMW": 150,
    "renewable": true,
    "pue": 1.09,
    "certifications": [
      "LEED Gold"
    ],
    "metadata": {
      "url": "https://sustainability.fb.com/data-centers/",
      "notes": "First wholly owned datacenter, wind-powered"
    },
    "verified": true,
    "source": "official"
  },
  {
    "id": "meta-forest-city",
    "provider": "Meta",
    "providerType": "tech-giant",
    "name": "Forest City Data Center",
    "displayName": "Forest City, North Carolina",
    "city": "Forest City",
    "state": "NC",
    "country": "US",
    "lat": 35.334,
    "lng": -81.8651,
    "region": "us-east",
    "opened": 2012,
    "capacityMW": 180,
    "renewable": true,
    "pue": 1.1,
    "certifications": [
      "LEED Gold"
    ],
    "metadata": {
      "url": "https://sustainability.fb.com/data-centers/"
    },
    "verified": true,
    "source": "official"
  },
  {
    "id": "meta-altoona",
    "provider": "Meta",
    "providerType": "tech-giant",
    "name": "Altoona Data Center",
    "displayName": "Altoona, Iowa",
    "city": "Altoona",
    "state": "IA",
    "country": "US",
    "lat": 41.6445,
    "lng": -93.4652,
    "region": "us-central",
    "opened": 2014,
    "capacityMW": 200,
    "renewable": true,
    "pue": 1.09,
    "certifications": [
      "LEED Gold"
    ],
    "metadata": {
      "url": "https://sustainability.fb.com/data-centers/"
    },
    "verified": true,
    "source": "official"
  },
  {
    "id": "google-the-dalles",
    "provider": "Google",
    "providerType": "tech-giant",
    "name": "The Dalles Data Center",
    "displayName": "The Dalles, Oregon",
    "city": "The Dalles",
    "state": "OR",
    "country": "US",
    "lat": 45.5946,
    "lng": -121.1787,
    "region": "us-west",
    "opened": 2006,
    "capacityMW": 200,
    "renewable": true,
    "pue": 1.12,
    "certifications": [
      "ISO 14001"
    ],
    "metadata": {
      "url": "https://www.google.com/about/datacenters/locations/the-dalles/",
      "notes": "First Google DC, hydropower"
    },
    "verified": true,
    "source": "official"
  },
  {
    "id": "google-council-bluffs",
    "provider": "Google",
    "providerType": "tech-giant",
    "name": "Council Bluffs Data Center",
    "displayName": "Council Bluffs, Iowa",
    "city": "Council Bluffs",
    "state": "IA",
    "country": "US",
    "lat": 41.2619,
    "lng": -95.8608,
    "region": "us-central",
    "opened": 2009,
    "capacityMW": 250,
    "renewable": true,
    "pue": 1.1,
    "certifications": [
      "ISO 14001"
    ],
    "metadata": {
      "url": "https://www.google.com/about/datacenters/locations/council-bluffs/"
    },
    "verified": true,
    "source": "official"
  },
  {
    "id": "apple-maiden",
    "provider": "Apple",
    "providerType": "tech-giant",
    "name": "Maiden Data Center",
    "displayName": "Maiden, North Carolina",
    "city": "Maiden",
    "state": "NC",
    "country": "US",
    "lat": 35.5718,
    "lng": -81.2248,
    "region": "us-east",
    "opened": 2010,
    "capacityMW": 100,
    "renewable": true,
    "pue": 1.08,
    "certifications": [
      "LEED Platinum"
    ],
    "metadata": {
      "url": "https://www.apple.com/environment/",
      "notes": "100% renewable, solar + biogas"
    },
    "verified": true,
    "source": "official"
  },
  {
    "id": "apple-reno",
    "provider": "Apple",
    "providerType": "tech-giant",
    "name": "Reno Data Center",
    "displayName": "Reno, Nevada",
    "city": "Reno",
    "state": "NV",
    "country": "US",
    "lat": 39.5296,
    "lng": -119.8138,
    "region": "us-west",
    "opened": 2012,
    "capacityMW": 80,
    "renewable": true,
    "pue": 1.07,
    "certifications": [
      "LEED Gold"
    ],
    "metadata": {
      "url": "https://www.apple.com/environment/",
      "peeringDbId": 11380,
      "netCount": 4,
      "ixCount": 0,
      "carrierCount": 0,
      "address1": "200 S Virginia St",
      "zipcode": "89501-2405"
    },
    "verified": true,
    "source": "official"
  },
  {
    "id": "equinix-sv1",
    "provider": "Equinix",
    "providerType": "colocation",
    "name": "SV1",
    "displayName": "Silicon Valley - Sunnyvale",
    "city": "Sunnyvale",
    "state": "CA",
    "country": "US",
    "lat": 37.3688,
    "lng": -122.0363,
    "region": "us-west",
    "opened": 1998,
    "capacityMW": 10,
    "renewable": false,
    "pue": 1.5,
    "certifications": [
      "ISO 27001",
      "SOC 2"
    ],
    "metadata": {
      "url": "https://www.equinix.com/data-centers/americas-colocation/united-states-colocation/silicon-valley-data-centers/sv1",
      "type": "IBX",
      "sqft": 58000,
      "peeringDbId": 510,
      "netCount": 8,
      "ixCount": 2,
      "carrierCount": 0,
      "address1": "444 Toyama Dr",
      "zipcode": "94089",
      "clli": "SNVBCA"
    },
    "verified": true,
    "source": "official"
  },
  {
    "id": "equinix-dc2",
    "provider": "Equinix",
    "providerType": "colocation",
    "name": "DC2",
    "displayName": "Washington DC - Ashburn",
    "city": "Ashburn",
    "state": "VA",
    "country": "US",
    "lat": 39.0438,
    "lng": -77.4874,
    "region": "us-east",
    "opened": 2001,
    "capacityMW": 12,
    "renewable": false,
    "pue": 1.45,
    "certifications": [
      "ISO 27001",
      "SOC 2",
      "PCI DSS"
    ],
    "metadata": {
      "url": "https://www.equinix.com/data-centers/americas-colocation/united-states-colocation/washington-dc-data-centers/dc2",
      "type": "IBX",
      "sqft": 72000,
      "peeringDbId": 8340,
      "netCount": 2,
      "ixCount": 0,
      "carrierCount": 0,
      "address1": "21635 Red Rum Drive",
      "zipcode": "20147"
    },
    "verified": true,
    "source": "official"
  },
  {
    "id": "digitalocean-nyc1",
    "provider": "DigitalOcean",
    "providerType": "regional-cloud",
    "name": "nyc1",
    "displayName": "New York City 1",
    "city": "New York",
    "state": "NY",
    "country": "US",
    "lat": 40.7128,
    "lng": -74.006,
    "region": "us-east",
    "opened": 2011,
    "capacityMW": 20,
    "renewable": false,
    "pue": 1.3,
    "certifications": [
      "SOC 2"
    ],
    "metadata": {
      "url": "https://www.digitalocean.com/products/droplets"
    },
    "verified": true,
    "source": "official"
  },
  {
    "id": "digitalocean-sfo3",
    "provider": "DigitalOcean",
    "providerType": "regional-cloud",
    "name": "sfo3",
    "displayName": "San Francisco 3",
    "city": "San Francisco",
    "state": "CA",
    "country": "US",
    "lat": 37.7749,
    "lng": -122.4194,
    "region": "us-west",
    "opened": 2018,
    "capacityMW": 15,
    "renewable": false,
    "pue": 1.25,
    "certifications": [
      "SOC 2"
    ],
    "metadata": {
      "url": "https://www.digitalocean.com/products/droplets"
    },
    "verified": true,
    "source": "official"
  },
  {
    "id": "aws-us-gov-east-1",
    "provider": "AWS",
    "providerType": "hyperscale-cloud",
    "name": "us-gov-east-1",
    "displayName": "AWS GovCloud (US-East)",
    "city": "Ashburn",
    "state": "VA",
    "country": "US",
    "lat": 39.0438,
    "lng": -77.4874,
    "region": "us-east",
    "availabilityZones": 3,
    "opened": 2018,
    "capacityMW": 150,
    "renewable": true,
    "pue": 1.2,
    "certifications": [
      "ISO 27001",
      "SOC 2",
      "FedRAMP High"
    ],
    "metadata": {
      "url": "https://aws.amazon.com/govcloud-us/",
      "statusPage": "https://health.aws.amazon.com/health/status",
      "notes": "Government-only region"
    },
    "verified": true,
    "source": "official"
  },
  {
    "id": "aws-us-gov-west-1",
    "provider": "AWS",
    "providerType": "hyperscale-cloud",
    "name": "us-gov-west-1",
    "displayName": "AWS GovCloud (US-West)",
    "city": "Portland",
    "state": "OR",
    "country": "US",
    "lat": 45.5152,
    "lng": -122.6784,
    "region": "us-west",
    "availabilityZones": 3,
    "opened": 2011,
    "capacityMW": 180,
    "renewable": true,
    "pue": 1.15,
    "certifications": [
      "ISO 27001",
      "SOC 2",
      "FedRAMP High"
    ],
    "metadata": {
      "url": "https://aws.amazon.com/govcloud-us/",
      "statusPage": "https://health.aws.amazon.com/health/status"
    },
    "verified": true,
    "source": "official"
  },
  {
    "id": "azure-southcentralus",
    "provider": "Azure",
    "providerType": "hyperscale-cloud",
    "name": "southcentralus",
    "displayName": "South Central US",
    "city": "San Antonio",
    "state": "TX",
    "country": "US",
    "lat": 29.4241,
    "lng": -98.4936,
    "region": "us-south",
    "availabilityZones": 3,
    "opened": 2012,
    "capacityMW": 250,
    "renewable": true,
    "pue": 1.18,
    "certifications": [
      "ISO 27001",
      "SOC 2"
    ],
    "metadata": {
      "url": "https://azure.microsoft.com/en-us/explore/global-infrastructure/geographies/"
    },
    "verified": true,
    "source": "official"
  },
  {
    "id": "azure-northcentralus",
    "provider": "Azure",
    "providerType": "hyperscale-cloud",
    "name": "northcentralus",
    "displayName": "North Central US",
    "city": "Chicago",
    "state": "IL",
    "country": "US",
    "lat": 41.8781,
    "lng": -87.6298,
    "region": "us-central",
    "availabilityZones": 3,
    "opened": 2012,
    "capacityMW": 200,
    "renewable": true,
    "pue": 1.2,
    "certifications": [
      "ISO 27001",
      "SOC 2"
    ],
    "metadata": {
      "url": "https://azure.microsoft.com/en-us/explore/global-infrastructure/geographies/"
    },
    "verified": true,
    "source": "official"
  },
  {
    "id": "azure-westcentralus",
    "provider": "Azure",
    "providerType": "hyperscale-cloud",
    "name": "westcentralus",
    "displayName": "West Central US",
    "city": "Cheyenne",
    "state": "WY",
    "country": "US",
    "lat": 41.14,
    "lng": -104.8202,
    "region": "us-central",
    "availabilityZones": 3,
    "opened": 2016,
    "capacityMW": 150,
    "renewable": true,
    "pue": 1.16,
    "certifications": [
      "ISO 27001",
      "SOC 2"
    ],
    "metadata": {
      "url": "https://azure.microsoft.com/en-us/explore/global-infrastructure/geographies/"
    },
    "verified": true,
    "source": "official"
  },
  {
    "id": "azure-westus3",
    "provider": "Azure",
    "providerType": "hyperscale-cloud",
    "name": "westus3",
    "displayName": "West US 3",
    "city": "Phoenix",
    "state": "AZ",
    "country": "US",
    "lat": 33.4484,
    "lng": -112.074,
    "region": "us-west",
    "availabilityZones": 3,
    "opened": 2021,
    "capacityMW": 180,
    "renewable": true,
    "pue": 1.15,
    "certifications": [
      "ISO 27001",
      "SOC 2"
    ],
    "metadata": {
      "url": "https://azure.microsoft.com/en-us/explore/global-infrastructure/geographies/"
    },
    "verified": true,
    "source": "official"
  },
  {
    "id": "gcp-us-west3",
    "provider": "GCP",
    "providerType": "hyperscale-cloud",
    "name": "us-west3",
    "displayName": "Salt Lake City",
    "city": "Salt Lake City",
    "state": "UT",
    "country": "US",
    "lat": 40.7608,
    "lng": -111.891,
    "region": "us-west",
    "availabilityZones": 3,
    "opened": 2020,
    "capacityMW": 120,
    "renewable": true,
    "pue": 1.11,
    "certifications": [
      "ISO 27001",
      "SOC 2"
    ],
    "metadata": {
      "url": "https://cloud.google.com/about/locations"
    },
    "verified": true,
    "source": "official"
  },
  {
    "id": "gcp-us-west4",
    "provider": "GCP",
    "providerType": "hyperscale-cloud",
    "name": "us-west4",
    "displayName": "Las Vegas",
    "city": "Las Vegas",
    "state": "NV",
    "country": "US",
    "lat": 36.1699,
    "lng": -115.1398,
    "region": "us-west",
    "availabilityZones": 3,
    "opened": 2020,
    "capacityMW": 130,
    "renewable": true,
    "pue": 1.12,
    "certifications": [
      "ISO 27001",
      "SOC 2"
    ],
    "metadata": {
      "url": "https://cloud.google.com/about/locations"
    },
    "verified": true,
    "source": "official"
  },
  {
    "id": "gcp-us-south1",
    "provider": "GCP",
    "providerType": "hyperscale-cloud",
    "name": "us-south1",
    "displayName": "Dallas",
    "city": "Dallas",
    "state": "TX",
    "country": "US",
    "lat": 32.7767,
    "lng": -96.797,
    "region": "us-south",
    "availabilityZones": 3,
    "opened": 2021,
    "capacityMW": 140,
    "renewable": true,
    "pue": 1.13,
    "certifications": [
      "ISO 27001",
      "SOC 2"
    ],
    "metadata": {
      "url": "https://cloud.google.com/about/locations"
    },
    "verified": true,
    "source": "official"
  },
  {
    "id": "oracle-us-ashburn-1",
    "provider": "Oracle",
    "providerType": "hyperscale-cloud",
    "name": "us-ashburn-1",
    "displayName": "Ashburn",
    "city": "Ashburn",
    "state": "VA",
    "country": "US",
    "lat": 39.0438,
    "lng": -77.4874,
    "region": "us-east",
    "availabilityZones": 3,
    "opened": 2016,
    "capacityMW": 180,
    "renewable": false,
    "pue": 1.25,
    "certifications": [
      "ISO 27001",
      "SOC 2"
    ],
    "metadata": {
      "url": "https://www.oracle.com/cloud/data-regions/"
    },
    "verified": true,
    "source": "official"
  },
  {
    "id": "oracle-us-phoenix-1",
    "provider": "Oracle",
    "providerType": "hyperscale-cloud",
    "name": "us-phoenix-1",
    "displayName": "Phoenix",
    "city": "Phoenix",
    "state": "AZ",
    "country": "US",
    "lat": 33.4484,
    "lng": -112.074,
    "region": "us-west",
    "availabilityZones": 3,
    "opened": 2016,
    "capacityMW": 160,
    "renewable": false,
    "pue": 1.22,
    "certifications": [
      "ISO 27001",
      "SOC 2"
    ],
    "metadata": {
      "url": "https://www.oracle.com/cloud/data-regions/"
    },
    "verified": true,
    "source": "official"
  },
  {
    "id": "oracle-us-sanjose-1",
    "provider": "Oracle",
    "providerType": "hyperscale-cloud",
    "name": "us-sanjose-1",
    "displayName": "San Jose",
    "city": "San Jose",
    "state": "CA",
    "country": "US",
    "lat": 37.3382,
    "lng": -121.8863,
    "region": "us-west",
    "availabilityZones": 3,
    "opened": 2017,
    "capacityMW": 140,
    "renewable": false,
    "pue": 1.2,
    "certifications": [
      "ISO 27001",
      "SOC 2"
    ],
    "metadata": {
      "url": "https://www.oracle.com/cloud/data-regions/"
    },
    "verified": true,
    "source": "official"
  },
  {
    "id": "oracle-us-chicago-1",
    "provider": "Oracle",
    "providerType": "hyperscale-cloud",
    "name": "us-chicago-1",
    "displayName": "Chicago",
    "city": "Chicago",
    "state": "IL",
    "country": "US",
    "lat": 41.8781,
    "lng": -87.6298,
    "region": "us-central",
    "availabilityZones": 3,
    "opened": 2020,
    "capacityMW": 120,
    "renewable": false,
    "pue": 1.23,
    "certifications": [
      "ISO 27001",
      "SOC 2"
    ],
    "metadata": {
      "url": "https://www.oracle.com/cloud/data-regions/"
    },
    "verified": true,
    "source": "official"
  },
  {
    "id": "ibm-us-south",
    "provider": "IBM",
    "providerType": "hyperscale-cloud",
    "name": "us-south",
    "displayName": "Dallas",
    "city": "Dallas",
    "state": "TX",
    "country": "US",
    "lat": 32.7767,
    "lng": -96.797,
    "region": "us-south",
    "availabilityZones": 3,
    "opened": 2014,
    "capacityMW": 150,
    "renewable": false,
    "pue": 1.28,
    "certifications": [
      "ISO 27001",
      "SOC 2"
    ],
    "metadata": {
      "url": "https://www.ibm.com/cloud/data-centers/"
    },
    "verified": true,
    "source": "official"
  },
  {
    "id": "ibm-us-east",
    "provider": "IBM",
    "providerType": "hyperscale-cloud",
    "name": "us-east",
    "displayName": "Washington DC",
    "city": "Ashburn",
    "state": "VA",
    "country": "US",
    "lat": 39.0438,
    "lng": -77.4874,
    "region": "us-east",
    "availabilityZones": 3,
    "opened": 2017,
    "capacityMW": 130,
    "renewable": false,
    "pue": 1.26,
    "certifications": [
      "ISO 27001",
      "SOC 2"
    ],
    "metadata": {
      "url": "https://www.ibm.com/cloud/data-centers/"
    },
    "verified": true,
    "source": "official"
  },
  {
    "id": "alibaba-us-west-1",
    "provider": "Alibaba",
    "providerType": "hyperscale-cloud",
    "name": "us-west-1",
    "displayName": "Silicon Valley",
    "city": "San Jose",
    "state": "CA",
    "country": "US",
    "lat": 37.3382,
    "lng": -121.8863,
    "region": "us-west",
    "availabilityZones": 2,
    "opened": 2015,
    "capacityMW": 80,
    "renewable": false,
    "pue": 1.3,
    "certifications": [
      "ISO 27001"
    ],
    "metadata": {
      "url": "https://www.alibabacloud.com/global-locations"
    },
    "verified": true,
    "source": "official"
  },
  {
    "id": "alibaba-us-east-1",
    "provider": "Alibaba",
    "providerType": "hyperscale-cloud",
    "name": "us-east-1",
    "displayName": "Virginia",
    "city": "Ashburn",
    "state": "VA",
    "country": "US",
    "lat": 39.0438,
    "lng": -77.4874,
    "region": "us-east",
    "availabilityZones": 2,
    "opened": 2016,
    "capacityMW": 70,
    "renewable": false,
    "pue": 1.32,
    "certifications": [
      "ISO 27001"
    ],
    "metadata": {
      "url": "https://www.alibabacloud.com/global-locations"
    },
    "verified": true,
    "source": "official"
  },
  {
    "id": "meta-fort-worth",
    "provider": "Meta",
    "providerType": "tech-giant",
    "name": "Fort Worth Data Center",
    "displayName": "Fort Worth, Texas",
    "city": "Fort Worth",
    "state": "TX",
    "country": "US",
    "lat": 32.7555,
    "lng": -97.3308,
    "region": "us-south",
    "opened": 2016,
    "capacityMW": 220,
    "renewable": true,
    "pue": 1.09,
    "certifications": [
      "LEED Gold"
    ],
    "metadata": {
      "url": "https://sustainability.fb.com/data-centers/",
      "peeringDbId": 7875,
      "netCount": 3,
      "ixCount": 1,
      "carrierCount": 2,
      "address1": "14100 Park Vista Boulevard",
      "zipcode": "76177"
    },
    "verified": true,
    "source": "official"
  },
  {
    "id": "meta-los-lunas",
    "provider": "Meta",
    "providerType": "tech-giant",
    "name": "Los Lunas Data Center",
    "displayName": "Los Lunas, New Mexico",
    "city": "Los Lunas",
    "state": "NM",
    "country": "US",
    "lat": 34.8064,
    "lng": -106.7333,
    "region": "us-west",
    "opened": 2018,
    "capacityMW": 200,
    "renewable": true,
    "pue": 1.08,
    "certifications": [
      "LEED Gold"
    ],
    "metadata": {
      "url": "https://sustainability.fb.com/data-centers/"
    },
    "verified": true,
    "source": "official"
  },
  {
    "id": "meta-huntsville",
    "provider": "Meta",
    "providerType": "tech-giant",
    "name": "Huntsville Data Center",
    "displayName": "Huntsville, Alabama",
    "city": "Huntsville",
    "state": "AL",
    "country": "US",
    "lat": 34.7304,
    "lng": -86.5861,
    "region": "us-south",
    "opened": 2020,
    "capacityMW": 240,
    "renewable": true,
    "pue": 1.07,
    "certifications": [
      "LEED Gold"
    ],
    "metadata": {
      "url": "https://sustainability.fb.com/data-centers/"
    },
    "verified": true,
    "source": "official"
  },
  {
    "id": "meta-henrico",
    "provider": "Meta",
    "providerType": "tech-giant",
    "name": "Henrico Data Center",
    "displayName": "Henrico, Virginia",
    "city": "Henrico",
    "state": "VA",
    "country": "US",
    "lat": 37.5066,
    "lng": -77.3666,
    "region": "us-east",
    "opened": 2019,
    "capacityMW": 210,
    "renewable": true,
    "pue": 1.09,
    "certifications": [
      "LEED Gold"
    ],
    "metadata": {
      "url": "https://sustainability.fb.com/data-centers/"
    },
    "verified": true,
    "source": "official"
  },
  {
    "id": "google-berkeley-county",
    "provider": "Google",
    "providerType": "tech-giant",
    "name": "Berkeley County Data Center",
    "displayName": "Berkeley County, South Carolina",
    "city": "Moncks Corner",
    "state": "SC",
    "country": "US",
    "lat": 33.196,
    "lng": -80.0129,
    "region": "us-east",
    "opened": 2007,
    "capacityMW": 220,
    "renewable": true,
    "pue": 1.11,
    "certifications": [
      "ISO 14001"
    ],
    "metadata": {
      "url": "https://www.google.com/about/datacenters/locations/berkeley-county/"
    },
    "verified": true,
    "source": "official"
  },
  {
    "id": "google-jackson-county",
    "provider": "Google",
    "providerType": "tech-giant",
    "name": "Jackson County Data Center",
    "displayName": "Jackson County, Alabama",
    "city": "Bridgeport",
    "state": "AL",
    "country": "US",
    "lat": 34.9478,
    "lng": -85.7144,
    "region": "us-south",
    "opened": 2015,
    "capacityMW": 180,
    "renewable": true,
    "pue": 1.1,
    "certifications": [
      "ISO 14001"
    ],
    "metadata": {
      "url": "https://www.google.com/about/datacenters/locations/jackson-county/"
    },
    "verified": true,
    "source": "official"
  },
  {
    "id": "google-mayes-county",
    "provider": "Google",
    "providerType": "tech-giant",
    "name": "Mayes County Data Center",
    "displayName": "Mayes County, Oklahoma",
    "city": "Pryor",
    "state": "OK",
    "country": "US",
    "lat": 36.3084,
    "lng": -95.3169,
    "region": "us-central",
    "opened": 2011,
    "capacityMW": 160,
    "renewable": true,
    "pue": 1.12,
    "certifications": [
      "ISO 14001"
    ],
    "metadata": {
      "url": "https://www.google.com/about/datacenters/locations/mayes-county/"
    },
    "verified": true,
    "source": "official"
  },
  {
    "id": "apple-mesa",
    "provider": "Apple",
    "providerType": "tech-giant",
    "name": "Mesa Data Center",
    "displayName": "Mesa, Arizona",
    "city": "Mesa",
    "state": "AZ",
    "country": "US",
    "lat": 33.4152,
    "lng": -111.8315,
    "region": "us-west",
    "opened": 2014,
    "capacityMW": 90,
    "renewable": true,
    "pue": 1.09,
    "certifications": [
      "LEED Platinum"
    ],
    "metadata": {
      "url": "https://www.apple.com/environment/"
    },
    "verified": true,
    "source": "official"
  },
  {
    "id": "apple-prineville",
    "provider": "Apple",
    "providerType": "tech-giant",
    "name": "Prineville Data Center",
    "displayName": "Prineville, Oregon",
    "city": "Prineville",
    "state": "OR",
    "country": "US",
    "lat": 44.2999,
    "lng": -120.8342,
    "region": "us-west",
    "opened": 2017,
    "capacityMW": 85,
    "renewable": true,
    "pue": 1.07,
    "certifications": [
      "LEED Gold"
    ],
    "metadata": {
      "url": "https://www.apple.com/environment/"
    },
    "verified": true,
    "source": "official"
  },
  {
    "id": "equinix-ny4",
    "provider": "Equinix",
    "providerType": "colocation",
    "name": "NY4",
    "displayName": "New York - Secaucus",
    "city": "Secaucus",
    "state": "NJ",
    "country": "US",
    "lat": 40.7895,
    "lng": -74.0565,
    "region": "us-east",
    "opened": 2010,
    "capacityMW": 15,
    "renewable": false,
    "pue": 1.42,
    "certifications": [
      "ISO 27001",
      "SOC 2",
      "PCI DSS"
    ],
    "metadata": {
      "url": "https://www.equinix.com/data-centers/americas-colocation/united-states-colocation/new-york-data-centers/ny4",
      "type": "IBX",
      "peeringDbId": 16827,
      "netCount": 0,
      "ixCount": 1,
      "carrierCount": 0,
      "address1": "600 Jefferson Avenue",
      "zipcode": "07094"
    },
    "verified": true,
    "source": "official"
  },
  {
    "id": "equinix-ch1",
    "provider": "Equinix",
    "providerType": "colocation",
    "name": "CH1",
    "displayName": "Chicago",
    "city": "Chicago",
    "state": "IL",
    "country": "US",
    "lat": 41.8781,
    "lng": -87.6298,
    "region": "us-central",
    "opened": 2000,
    "capacityMW": 11,
    "renewable": false,
    "pue": 1.48,
    "certifications": [
      "ISO 27001",
      "SOC 2"
    ],
    "metadata": {
      "url": "https://www.equinix.com/data-centers/americas-colocation/united-states-colocation/chicago-data-centers/ch1",
      "type": "IBX",
      "peeringDbId": 7,
      "netCount": 329,
      "ixCount": 10,
      "carrierCount": 13,
      "address1": "350 E Cermak Rd",
      "zipcode": "60616-1568",
      "clli": "CHCGIL"
    },
    "verified": true,
    "source": "official"
  },
  {
    "id": "equinix-da2",
    "provider": "Equinix",
    "providerType": "colocation",
    "name": "DA2",
    "displayName": "Dallas",
    "city": "Dallas",
    "state": "TX",
    "country": "US",
    "lat": 32.7767,
    "lng": -96.797,
    "region": "us-south",
    "opened": 2001,
    "capacityMW": 12,
    "renewable": false,
    "pue": 1.46,
    "certifications": [
      "ISO 27001",
      "SOC 2"
    ],
    "metadata": {
      "url": "https://www.equinix.com/data-centers/americas-colocation/united-states-colocation/dallas-data-centers/da2",
      "type": "IBX",
      "peeringDbId": 4,
      "netCount": 166,
      "ixCount": 5,
      "carrierCount": 8,
      "address1": "1950 N Stemmons Fwy",
      "zipcode": "75207-3137",
      "clli": "DLLSTX"
    },
    "verified": true,
    "source": "official"
  },
  {
    "id": "equinix-la3",
    "provider": "Equinix",
    "providerType": "colocation",
    "name": "LA3",
    "displayName": "Los Angeles",
    "city": "El Segundo",
    "state": "CA",
    "country": "US",
    "lat": 33.9192,
    "lng": -118.4165,
    "region": "us-west",
    "opened": 2001,
    "capacityMW": 10,
    "renewable": false,
    "pue": 1.5,
    "certifications": [
      "ISO 27001",
      "SOC 2"
    ],
    "metadata": {
      "url": "https://www.equinix.com/data-centers/americas-colocation/united-states-colocation/los-angeles-data-centers/la3",
      "type": "IBX",
      "peeringDbId": 333,
      "netCount": 53,
      "ixCount": 3,
      "carrierCount": 3,
      "address1": "445 North Douglas Street",
      "zipcode": "90245-3411"
    },
    "verified": true,
    "source": "official"
  },
  {
    "id": "equinix-se2",
    "provider": "Equinix",
    "providerType": "colocation",
    "name": "SE2",
    "displayName": "Seattle",
    "city": "Seattle",
    "state": "WA",
    "country": "US",
    "lat": 47.6062,
    "lng": -122.3321,
    "region": "us-west",
    "opened": 2002,
    "capacityMW": 9,
    "renewable": false,
    "pue": 1.49,
    "certifications": [
      "ISO 27001",
      "SOC 2"
    ],
    "metadata": {
      "url": "https://www.equinix.com/data-centers/americas-colocation/united-states-colocation/seattle-data-centers/se2",
      "type": "IBX",
      "peeringDbId": 71,
      "netCount": 234,
      "ixCount": 5,
      "carrierCount": 9,
      "address1": "2001 Sixth Avenue",
      "zipcode": "98121",
      "clli": "STTLWAWB"
    },
    "verified": true,
    "source": "official"
  },
  {
    "id": "digitalrealty-ashburn",
    "provider": "Digital Realty",
    "providerType": "colocation",
    "name": "Ashburn Campus",
    "displayName": "Ashburn, Virginia",
    "city": "Ashburn",
    "state": "VA",
    "country": "US",
    "lat": 39.0438,
    "lng": -77.4874,
    "region": "us-east",
    "opened": 2005,
    "capacityMW": 25,
    "renewable": false,
    "pue": 1.4,
    "certifications": [
      "ISO 27001",
      "SOC 2"
    ],
    "metadata": {
      "url": "https://www.digitalrealty.com/data-centers",
      "peeringDbId": 8340,
      "netCount": 2,
      "ixCount": 0,
      "carrierCount": 0,
      "address1": "21635 Red Rum Drive",
      "zipcode": "20147"
    },
    "verified": true,
    "source": "official"
  },
  {
    "id": "digitalrealty-santa-clara",
    "provider": "Digital Realty",
    "providerType": "colocation",
    "name": "Santa Clara Campus",
    "displayName": "Santa Clara, California",
    "city": "Santa Clara",
    "state": "CA",
    "country": "US",
    "lat": 37.3541,
    "lng": -121.9552,
    "region": "us-west",
    "opened": 2004,
    "capacityMW": 20,
    "renewable": false,
    "pue": 1.45,
    "certifications": [
      "ISO 27001",
      "SOC 2"
    ],
    "metadata": {
      "url": "https://www.digitalrealty.com/data-centers",
      "peeringDbId": 10830,
      "netCount": 0,
      "ixCount": 0,
      "carrierCount": 0,
      "address1": "2805 Lafayette St",
      "zipcode": "95050"
    },
    "verified": true,
    "source": "official"
  },
  {
    "id": "digitalrealty-chicago",
    "provider": "Digital Realty",
    "providerType": "colocation",
    "name": "Chicago Campus",
    "displayName": "Chicago, Illinois",
    "city": "Chicago",
    "state": "IL",
    "country": "US",
    "lat": 41.8781,
    "lng": -87.6298,
    "region": "us-central",
    "opened": 2006,
    "capacityMW": 18,
    "renewable": false,
    "pue": 1.42,
    "certifications": [
      "ISO 27001",
      "SOC 2"
    ],
    "metadata": {
      "url": "https://www.digitalrealty.com/data-centers",
      "peeringDbId": 10476,
      "netCount": 0,
      "ixCount": 0,
      "carrierCount": 0,
      "address1": "216 W Jackson Blvd",
      "zipcode": "60606"
    },
    "verified": true,
    "source": "official"
  },
  {
    "id": "digitalrealty-dallas",
    "provider": "Digital Realty",
    "providerType": "colocation",
    "name": "Dallas Campus",
    "displayName": "Dallas, Texas",
    "city": "Dallas",
    "state": "TX",
    "country": "US",
    "lat": 32.7767,
    "lng": -96.797,
    "region": "us-south",
    "opened": 2007,
    "capacityMW": 22,
    "renewable": false,
    "pue": 1.43,
    "certifications": [
      "ISO 27001",
      "SOC 2"
    ],
    "metadata": {
      "url": "https://www.digitalrealty.com/data-centers",
      "peeringDbId": 1021,
      "netCount": 8,
      "ixCount": 0,
      "carrierCount": 1,
      "address1": "3180 Irving Blvd.",
      "zipcode": "75247"
    },
    "verified": true,
    "source": "official"
  },
  {
    "id": "coresite-la1",
    "provider": "CoreSite",
    "providerType": "colocation",
    "name": "LA1",
    "displayName": "Los Angeles - One Wilshire",
    "city": "Los Angeles",
    "state": "CA",
    "country": "US",
    "lat": 34.0522,
    "lng": -118.2437,
    "region": "us-west",
    "opened": 2001,
    "capacityMW": 8,
    "renewable": false,
    "pue": 1.52,
    "certifications": [
      "ISO 27001",
      "SOC 2"
    ],
    "metadata": {
      "url": "https://www.coresite.com/data-centers/locations/los-angeles/one-wilshire",
      "notes": "Historic carrier hotel",
      "peeringDbId": 19,
      "netCount": 340,
      "ixCount": 5,
      "carrierCount": 9,
      "address1": "624 S. Grand Ave.",
      "zipcode": "90017",
      "clli": "LSANCARC"
    },
    "verified": true,
    "source": "official"
  },
  {
    "id": "coresite-sv3",
    "provider": "CoreSite",
    "providerType": "colocation",
    "name": "SV3",
    "displayName": "Silicon Valley - Milpitas",
    "city": "Milpitas",
    "state": "CA",
    "country": "US",
    "lat": 37.4323,
    "lng": -121.8996,
    "region": "us-west",
    "opened": 2011,
    "capacityMW": 12,
    "renewable": false,
    "pue": 1.38,
    "certifications": [
      "ISO 27001",
      "SOC 2"
    ],
    "metadata": {
      "url": "https://www.coresite.com/data-centers/locations/silicon-valley/sv3-milpitas"
    },
    "verified": true,
    "source": "official"
  },
  {
    "id": "coresite-de1",
    "provider": "CoreSite",
    "providerType": "colocation",
    "name": "DE1",
    "displayName": "Denver",
    "city": "Denver",
    "state": "CO",
    "country": "US",
    "lat": 39.7392,
    "lng": -104.9903,
    "region": "us-central",
    "opened": 2010,
    "capacityMW": 10,
    "renewable": false,
    "pue": 1.4,
    "certifications": [
      "ISO 27001",
      "SOC 2"
    ],
    "metadata": {
      "url": "https://www.coresite.com/data-centers/locations/denver/de1",
      "peeringDbId": 389,
      "netCount": 109,
      "ixCount": 3,
      "carrierCount": 5,
      "address1": "910 15th Street",
      "zipcode": "80202",
      "clli": "DNVRCO26"
    },
    "verified": true,
    "source": "official"
  },
  {
    "id": "coresite-va1",
    "provider": "CoreSite",
    "providerType": "colocation",
    "name": "VA1",
    "displayName": "Reston, Virginia",
    "city": "Reston",
    "state": "VA",
    "country": "US",
    "lat": 38.9586,
    "lng": -77.357,
    "region": "us-east",
    "opened": 2010,
    "capacityMW": 14,
    "renewable": false,
    "pue": 1.39,
    "certifications": [
      "ISO 27001",
      "SOC 2"
    ],
    "metadata": {
      "url": "https://www.coresite.com/data-centers/locations/northern-virginia/va1-reston"
    },
    "verified": true,
    "source": "official"
  },
  {
    "id": "cyrusone-carrollton",
    "provider": "CyrusOne",
    "providerType": "colocation",
    "name": "Carrollton I",
    "displayName": "Carrollton, Texas",
    "city": "Carrollton",
    "state": "TX",
    "country": "US",
    "lat": 32.9537,
    "lng": -96.8903,
    "region": "us-south",
    "opened": 2008,
    "capacityMW": 18,
    "renewable": false,
    "pue": 1.35,
    "certifications": [
      "ISO 27001",
      "SOC 2"
    ],
    "metadata": {
      "url": "https://cyrusone.com/data-centers/"
    },
    "verified": true,
    "source": "official"
  },
  {
    "id": "cyrusone-chandler",
    "provider": "CyrusOne",
    "providerType": "colocation",
    "name": "Chandler",
    "displayName": "Chandler, Arizona",
    "city": "Chandler",
    "state": "AZ",
    "country": "US",
    "lat": 33.3062,
    "lng": -111.8413,
    "region": "us-west",
    "opened": 2012,
    "capacityMW": 16,
    "renewable": false,
    "pue": 1.32,
    "certifications": [
      "ISO 27001",
      "SOC 2"
    ],
    "metadata": {
      "url": "https://cyrusone.com/data-centers/"
    },
    "verified": true,
    "source": "official"
  },
  {
    "id": "cyrusone-sterling",
    "provider": "CyrusOne",
    "providerType": "colocation",
    "name": "Sterling",
    "displayName": "Sterling, Virginia",
    "city": "Sterling",
    "state": "VA",
    "country": "US",
    "lat": 39.0062,
    "lng": -77.4283,
    "region": "us-east",
    "opened": 2014,
    "capacityMW": 20,
    "renewable": false,
    "pue": 1.3,
    "certifications": [
      "ISO 27001",
      "SOC 2"
    ],
    "metadata": {
      "url": "https://cyrusone.com/data-centers/",
      "peeringDbId": 2302,
      "netCount": 9,
      "ixCount": 2,
      "carrierCount": 2,
      "address1": "21111 Ridgetop Circle",
      "zipcode": "20166"
    },
    "verified": true,
    "source": "official"
  },
  {
    "id": "qts-atlanta",
    "provider": "QTS",
    "providerType": "colocation",
    "name": "Atlanta Metro",
    "displayName": "Atlanta, Georgia",
    "city": "Atlanta",
    "state": "GA",
    "country": "US",
    "lat": 33.749,
    "lng": -84.388,
    "region": "us-south",
    "opened": 2010,
    "capacityMW": 22,
    "renewable": false,
    "pue": 1.36,
    "certifications": [
      "ISO 27001",
      "SOC 2"
    ],
    "metadata": {
      "url": "https://www.qtsdatacenters.com/data-centers",
      "peeringDbId": 3951,
      "netCount": 1,
      "ixCount": 0,
      "carrierCount": 0,
      "address1": "999 Lee St. S.W.",
      "zipcode": "30310"
    },
    "verified": true,
    "source": "official"
  },
  {
    "id": "qts-chicago",
    "provider": "QTS",
    "providerType": "colocation",
    "name": "Chicago",
    "displayName": "Chicago, Illinois",
    "city": "Chicago",
    "state": "IL",
    "country": "US",
    "lat": 41.8781,
    "lng": -87.6298,
    "region": "us-central",
    "opened": 2009,
    "capacityMW": 19,
    "renewable": false,
    "pue": 1.38,
    "certifications": [
      "ISO 27001",
      "SOC 2"
    ],
    "metadata": {
      "url": "https://www.qtsdatacenters.com/data-centers",
      "peeringDbId": 10476,
      "netCount": 0,
      "ixCount": 0,
      "carrierCount": 0,
      "address1": "216 W Jackson Blvd",
      "zipcode": "60606"
    },
    "verified": true,
    "source": "official"
  },
  {
    "id": "qts-richmond",
    "provider": "QTS",
    "providerType": "colocation",
    "name": "Richmond",
    "displayName": "Richmond, Virginia",
    "city": "Richmond",
    "state": "VA",
    "country": "US",
    "lat": 37.5407,
    "lng": -77.436,
    "region": "us-east",
    "opened": 2011,
    "capacityMW": 17,
    "renewable": false,
    "pue": 1.37,
    "certifications": [
      "ISO 27001",
      "SOC 2"
    ],
    "metadata": {
      "url": "https://www.qtsdatacenters.com/data-centers"
    },
    "verified": true,
    "source": "official"
  },
  {
    "id": "switch-las-vegas",
    "provider": "Switch",
    "providerType": "colocation",
    "name": "SUPERNAP Las Vegas",
    "displayName": "Las Vegas, Nevada",
    "city": "Las Vegas",
    "state": "NV",
    "country": "US",
    "lat": 36.1699,
    "lng": -115.1398,
    "region": "us-west",
    "opened": 2009,
    "capacityMW": 80,
    "renewable": true,
    "pue": 1.18,
    "certifications": [
      "ISO 27001",
      "SOC 2",
      "Tier IV Gold"
    ],
    "metadata": {
      "url": "https://www.switch.com/",
      "notes": "World's largest Tier IV datacenter campus",
      "peeringDbId": 770,
      "netCount": 44,
      "ixCount": 1,
      "carrierCount": 2,
      "address1": "7135 S Decatur Boulevard",
      "zipcode": "89118"
    },
    "verified": true,
    "source": "official"
  },
  {
    "id": "switch-reno",
    "provider": "Switch",
    "providerType": "colocation",
    "name": "SUPERNAP Reno",
    "displayName": "Reno, Nevada",
    "city": "Reno",
    "state": "NV",
    "country": "US",
    "lat": 39.5296,
    "lng": -119.8138,
    "region": "us-west",
    "opened": 2015,
    "capacityMW": 65,
    "renewable": true,
    "pue": 1.15,
    "certifications": [
      "ISO 27001",
      "SOC 2",
      "Tier IV Gold"
    ],
    "metadata": {
      "url": "https://www.switch.com/",
      "peeringDbId": 11380,
      "netCount": 4,
      "ixCount": 0,
      "carrierCount": 0,
      "address1": "200 S Virginia St",
      "zipcode": "89501-2405"
    },
    "verified": true,
    "source": "official"
  },
  {
    "id": "switch-atlanta",
    "provider": "Switch",
    "providerType": "colocation",
    "name": "Atlanta",
    "displayName": "Atlanta, Georgia",
    "city": "Atlanta",
    "state": "GA",
    "country": "US",
    "lat": 33.749,
    "lng": -84.388,
    "region": "us-south",
    "opened": 2018,
    "capacityMW": 50,
    "renewable": true,
    "pue": 1.2,
    "certifications": [
      "ISO 27001",
      "SOC 2"
    ],
    "metadata": {
      "url": "https://www.switch.com/",
      "peeringDbId": 3951,
      "netCount": 1,
      "ixCount": 0,
      "carrierCount": 0,
      "address1": "999 Lee St. S.W.",
      "zipcode": "30310"
    },
    "verified": true,
    "source": "official"
  },
  {
    "id": "vultr-atlanta",
    "provider": "Vultr",
    "providerType": "regional-cloud",
    "name": "Atlanta",
    "displayName": "Atlanta, Georgia",
    "city": "Atlanta",
    "state": "GA",
    "country": "US",
    "lat": 33.749,
    "lng": -84.388,
    "region": "us-south",
    "opened": 2017,
    "capacityMW": 10,
    "renewable": false,
    "pue": 1.3,
    "certifications": [
      "SOC 2"
    ],
    "metadata": {
      "url": "https://www.vultr.com/features/datacenter-locations/"
    },
    "verified": true,
    "source": "official"
  },
  {
    "id": "vultr-chicago",
    "provider": "Vultr",
    "providerType": "regional-cloud",
    "name": "Chicago",
    "displayName": "Chicago, Illinois",
    "city": "Chicago",
    "state": "IL",
    "country": "US",
    "lat": 41.8781,
    "lng": -87.6298,
    "region": "us-central",
    "opened": 2015,
    "capacityMW": 12,
    "renewable": false,
    "pue": 1.28,
    "certifications": [
      "SOC 2"
    ],
    "metadata": {
      "url": "https://www.vultr.com/features/datacenter-locations/"
    },
    "verified": true,
    "source": "official"
  },
  {
    "id": "vultr-dallas",
    "provider": "Vultr",
    "providerType": "regional-cloud",
    "name": "Dallas",
    "displayName": "Dallas, Texas",
    "city": "Dallas",
    "state": "TX",
    "country": "US",
    "lat": 32.7767,
    "lng": -96.797,
    "region": "us-south",
    "opened": 2014,
    "capacityMW": 11,
    "renewable": false,
    "pue": 1.32,
    "certifications": [
      "SOC 2"
    ],
    "metadata": {
      "url": "https://www.vultr.com/features/datacenter-locations/"
    },
    "verified": true,
    "source": "official"
  },
  {
    "id": "vultr-los-angeles",
    "provider": "Vultr",
    "providerType": "regional-cloud",
    "name": "Los Angeles",
    "displayName": "Los Angeles, California",
    "city": "Los Angeles",
    "state": "CA",
    "country": "US",
    "lat": 34.0522,
    "lng": -118.2437,
    "region": "us-west",
    "opened": 2016,
    "capacityMW": 10,
    "renewable": false,
    "pue": 1.3,
    "certifications": [
      "SOC 2"
    ],
    "metadata": {
      "url": "https://www.vultr.com/features/datacenter-locations/"
    },
    "verified": true,
    "source": "official"
  },
  {
    "id": "vultr-miami",
    "provider": "Vultr",
    "providerType": "regional-cloud",
    "name": "Miami",
    "displayName": "Miami, Florida",
    "city": "Miami",
    "state": "FL",
    "country": "US",
    "lat": 25.7617,
    "lng": -80.1918,
    "region": "us-south",
    "opened": 2016,
    "capacityMW": 9,
    "renewable": false,
    "pue": 1.35,
    "certifications": [
      "SOC 2"
    ],
    "metadata": {
      "url": "https://www.vultr.com/features/datacenter-locations/"
    },
    "verified": true,
    "source": "official"
  },
  {
    "id": "vultr-new-jersey",
    "provider": "Vultr",
    "providerType": "regional-cloud",
    "name": "New Jersey",
    "displayName": "Piscataway, New Jersey",
    "city": "Piscataway",
    "state": "NJ",
    "country": "US",
    "lat": 40.554,
    "lng": -74.4602,
    "region": "us-east",
    "opened": 2014,
    "capacityMW": 11,
    "renewable": false,
    "pue": 1.29,
    "certifications": [
      "SOC 2"
    ],
    "metadata": {
      "url": "https://www.vultr.com/features/datacenter-locations/"
    },
    "verified": true,
    "source": "official"
  },
  {
    "id": "vultr-seattle",
    "provider": "Vultr",
    "providerType": "regional-cloud",
    "name": "Seattle",
    "displayName": "Seattle, Washington",
    "city": "Seattle",
    "state": "WA",
    "country": "US",
    "lat": 47.6062,
    "lng": -122.3321,
    "region": "us-west",
    "opened": 2016,
    "capacityMW": 10,
    "renewable": false,
    "pue": 1.28,
    "certifications": [
      "SOC 2"
    ],
    "metadata": {
      "url": "https://www.vultr.com/features/datacenter-locations/"
    },
    "verified": true,
    "source": "official"
  },
  {
    "id": "vultr-silicon-valley",
    "provider": "Vultr",
    "providerType": "regional-cloud",
    "name": "Silicon Valley",
    "displayName": "San Jose, California",
    "city": "San Jose",
    "state": "CA",
    "country": "US",
    "lat": 37.3382,
    "lng": -121.8863,
    "region": "us-west",
    "opened": 2015,
    "capacityMW": 12,
    "renewable": false,
    "pue": 1.27,
    "certifications": [
      "SOC 2"
    ],
    "metadata": {
      "url": "https://www.vultr.com/features/datacenter-locations/"
    },
    "verified": true,
    "source": "official"
  },
  {
    "id": "linode-newark",
    "provider": "Linode",
    "providerType": "regional-cloud",
    "name": "Newark",
    "displayName": "Newark, New Jersey",
    "city": "Newark",
    "state": "NJ",
    "country": "US",
    "lat": 40.7357,
    "lng": -74.1724,
    "region": "us-east",
    "opened": 2008,
    "capacityMW": 15,
    "renewable": false,
    "pue": 1.3,
    "certifications": [
      "SOC 2"
    ],
    "metadata": {
      "url": "https://www.linode.com/global-infrastructure/"
    },
    "verified": true,
    "source": "official"
  },
  {
    "id": "linode-atlanta",
    "provider": "Linode",
    "providerType": "regional-cloud",
    "name": "Atlanta",
    "displayName": "Atlanta, Georgia",
    "city": "Atlanta",
    "state": "GA",
    "country": "US",
    "lat": 33.749,
    "lng": -84.388,
    "region": "us-south",
    "opened": 2010,
    "capacityMW": 12,
    "renewable": false,
    "pue": 1.32,
    "certifications": [
      "SOC 2"
    ],
    "metadata": {
      "url": "https://www.linode.com/global-infrastructure/"
    },
    "verified": true,
    "source": "official"
  },
  {
    "id": "linode-dallas",
    "provider": "Linode",
    "providerType": "regional-cloud",
    "name": "Dallas",
    "displayName": "Dallas, Texas",
    "city": "Dallas",
    "state": "TX",
    "country": "US",
    "lat": 32.7767,
    "lng": -96.797,
    "region": "us-south",
    "opened": 2011,
    "capacityMW": 13,
    "renewable": false,
    "pue": 1.31,
    "certifications": [
      "SOC 2"
    ],
    "metadata": {
      "url": "https://www.linode.com/global-infrastructure/"
    },
    "verified": true,
    "source": "official"
  },
  {
    "id": "linode-fremont",
    "provider": "Linode",
    "providerType": "regional-cloud",
    "name": "Fremont",
    "displayName": "Fremont, California",
    "city": "Fremont",
    "state": "CA",
    "country": "US",
    "lat": 37.5483,
    "lng": -121.9886,
    "region": "us-west",
    "opened": 2009,
    "capacityMW": 14,
    "renewable": false,
    "pue": 1.33,
    "certifications": [
      "SOC 2"
    ],
    "metadata": {
      "url": "https://www.linode.com/global-infrastructure/"
    },
    "verified": true,
    "source": "official"
  },
  {
    "id": "ovh-vint-hill",
    "provider": "OVH",
    "providerType": "regional-cloud",
    "name": "Vint Hill",
    "displayName": "Vint Hill, Virginia",
    "city": "Vint Hill",
    "state": "VA",
    "country": "US",
    "lat": 38.7618,
    "lng": -77.6753,
    "region": "us-east",
    "opened": 2016,
    "capacityMW": 18,
    "renewable": false,
    "pue": 1.26,
    "certifications": [
      "ISO 27001",
      "SOC 2"
    ],
    "metadata": {
      "url": "https://www.ovhcloud.com/en/about-us/global-infrastructure/"
    },
    "verified": true,
    "source": "official"
  },
  {
    "id": "ovh-hillsboro",
    "provider": "OVH",
    "providerType": "regional-cloud",
    "name": "Hillsboro",
    "displayName": "Hillsboro, Oregon",
    "city": "Hillsboro",
    "state": "OR",
    "country": "US",
    "lat": 45.5229,
    "lng": -122.9899,
    "region": "us-west",
    "opened": 2017,
    "capacityMW": 16,
    "renewable": true,
    "pue": 1.24,
    "certifications": [
      "ISO 27001",
      "SOC 2"
    ],
    "metadata": {
      "url": "https://www.ovhcloud.com/en/about-us/global-infrastructure/"
    },
    "verified": true,
    "source": "official"
  },
  {
    "id": "hetzner-ashburn",
    "provider": "Hetzner",
    "providerType": "regional-cloud",
    "name": "Ashburn",
    "displayName": "Ashburn, Virginia",
    "city": "Ashburn",
    "state": "VA",
    "country": "US",
    "lat": 39.0438,
    "lng": -77.4874,
    "region": "us-east",
    "opened": 2021,
    "capacityMW": 12,
    "renewable": false,
    "pue": 1.25,
    "certifications": [
      "ISO 27001"
    ],
    "metadata": {
      "url": "https://www.hetzner.com/"
    },
    "verified": true,
    "source": "official"
  },
  {
    "id": "hetzner-hillsboro",
    "provider": "Hetzner",
    "providerType": "regional-cloud",
    "name": "Hillsboro",
    "displayName": "Hillsboro, Oregon",
    "city": "Hillsboro",
    "state": "OR",
    "country": "US",
    "lat": 45.5229,
    "lng": -122.9899,
    "region": "us-west",
    "opened": 2022,
    "capacityMW": 10,
    "renewable": true,
    "pue": 1.23,
    "certifications": [
      "ISO 27001"
    ],
    "metadata": {
      "url": "https://www.hetzner.com/"
    },
    "verified": true,
    "source": "official"
  },
  {
    "id": "digitalocean-nyc2",
    "provider": "DigitalOcean",
    "providerType": "regional-cloud",
    "name": "nyc2",
    "displayName": "New York City 2",
    "city": "New York",
    "state": "NY",
    "country": "US",
    "lat": 40.7128,
    "lng": -74.006,
    "region": "us-east",
    "opened": 2014,
    "capacityMW": 18,
    "renewable": false,
    "pue": 1.28,
    "certifications": [
      "SOC 2"
    ],
    "metadata": {
      "url": "https://www.digitalocean.com/products/droplets"
    },
    "verified": true,
    "source": "official"
  },
  {
    "id": "digitalocean-nyc3",
    "provider": "DigitalOcean",
    "providerType": "regional-cloud",
    "name": "nyc3",
    "displayName": "New York City 3",
    "city": "New York",
    "state": "NY",
    "country": "US",
    "lat": 40.7128,
    "lng": -74.006,
    "region": "us-east",
    "opened": 2016,
    "capacityMW": 16,
    "renewable": false,
    "pue": 1.26,
    "certifications": [
      "SOC 2"
    ],
    "metadata": {
      "url": "https://www.digitalocean.com/products/droplets"
    },
    "verified": true,
    "source": "official"
  },
  {
    "id": "digitalocean-sfo2",
    "provider": "DigitalOcean",
    "providerType": "regional-cloud",
    "name": "sfo2",
    "displayName": "San Francisco 2",
    "city": "San Francisco",
    "state": "CA",
    "country": "US",
    "lat": 37.7749,
    "lng": -122.4194,
    "region": "us-west",
    "opened": 2015,
    "capacityMW": 14,
    "renewable": false,
    "pue": 1.27,
    "certifications": [
      "SOC 2"
    ],
    "metadata": {
      "url": "https://www.digitalocean.com/products/droplets"
    },
    "verified": true,
    "source": "official"
  },
  {
    "id": "microsoft-quincy",
    "provider": "Microsoft",
    "providerType": "tech-giant",
    "name": "Quincy Data Center",
    "displayName": "Quincy, Washington",
    "city": "Quincy",
    "state": "WA",
    "country": "US",
    "lat": 47.234,
    "lng": -119.8528,
    "region": "us-west",
    "opened": 2007,
    "capacityMW": 180,
    "renewable": true,
    "pue": 1.18,
    "certifications": [
      "ISO 27001",
      "SOC 2"
    ],
    "metadata": {
      "url": "https://www.microsoft.com/en-us/datacenter",
      "peeringDbId": 5545,
      "netCount": 4,
      "ixCount": 1,
      "carrierCount": 1,
      "address1": "2200 M St NE",
      "zipcode": "98848"
    },
    "verified": true,
    "source": "official"
  },
  {
    "id": "microsoft-san-antonio",
    "provider": "Microsoft",
    "providerType": "tech-giant",
    "name": "San Antonio Data Center",
    "displayName": "San Antonio, Texas",
    "city": "San Antonio",
    "state": "TX",
    "country": "US",
    "lat": 29.4241,
    "lng": -98.4936,
    "region": "us-south",
    "opened": 2009,
    "capacityMW": 160,
    "renewable": true,
    "pue": 1.2,
    "certifications": [
      "ISO 27001",
      "SOC 2"
    ],
    "metadata": {
      "url": "https://www.microsoft.com/en-us/datacenter",
      "peeringDbId": 1484,
      "netCount": 5,
      "ixCount": 0,
      "carrierCount": 2,
      "address1": "9999 Westover Hills Blvd",
      "zipcode": "78254"
    },
    "verified": true,
    "source": "official"
  },
  {
    "id": "microsoft-chicago",
    "provider": "Microsoft",
    "providerType": "tech-giant",
    "name": "Chicago Data Center",
    "displayName": "Chicago, Illinois",
    "city": "Chicago",
    "state": "IL",
    "country": "US",
    "lat": 41.8781,
    "lng": -87.6298,
    "region": "us-central",
    "opened": 2015,
    "capacityMW": 170,
    "renewable": true,
    "pue": 1.17,
    "certifications": [
      "ISO 27001",
      "SOC 2"
    ],
    "metadata": {
      "url": "https://www.microsoft.com/en-us/datacenter",
      "peeringDbId": 10476,
      "netCount": 0,
      "ixCount": 0,
      "carrierCount": 0,
      "address1": "216 W Jackson Blvd",
      "zipcode": "60606"
    },
    "verified": true,
    "source": "official"
  },
  {
    "id": "meta-papillion",
    "provider": "Meta",
    "providerType": "tech-giant",
    "name": "Papillion Data Center",
    "displayName": "Papillion, Nebraska",
    "city": "Papillion",
    "state": "NE",
    "country": "US",
    "lat": 41.1544,
    "lng": -96.0422,
    "region": "us-central",
    "opened": 2022,
    "capacityMW": 230,
    "renewable": true,
    "pue": 1.06,
    "certifications": [
      "LEED Gold"
    ],
    "metadata": {
      "url": "https://sustainability.fb.com/data-centers/"
    },
    "verified": true,
    "source": "official"
  },
  {
    "id": "google-omaha",
    "provider": "Google",
    "providerType": "tech-giant",
    "name": "Omaha Data Center",
    "displayName": "Omaha, Nebraska",
    "city": "Papillion",
    "state": "NE",
    "country": "US",
    "lat": 41.1544,
    "lng": -96.0422,
    "region": "us-central",
    "opened": 2021,
    "capacityMW": 170,
    "renewable": true,
    "pue": 1.11,
    "certifications": [
      "ISO 14001"
    ],
    "metadata": {
      "url": "https://www.google.com/about/datacenters/locations/"
    },
    "verified": true,
    "source": "official"
  },
  {
    "id": "aws-us-west-1-lax",
    "provider": "AWS",
    "providerType": "hyperscale-cloud",
    "name": "us-west-1-lax",
    "displayName": "US West (Los Angeles)",
    "city": "Los Angeles",
    "state": "CA",
    "country": "US",
    "lat": 34.0522,
    "lng": -118.2437,
    "region": "us-west",
    "availabilityZones": 3,
    "opened": 2023,
    "capacityMW": 140,
    "renewable": true,
    "pue": 1.14,
    "certifications": [
      "ISO 27001",
      "SOC 2"
    ],
    "metadata": {
      "url": "https://aws.amazon.com/about-aws/global-infrastructure/"
    },
    "verified": true,
    "source": "official"
  },
  {
    "id": "cloudflare-new-york",
    "provider": "Cloudflare",
    "providerType": "edge-cdn",
    "name": "New York",
    "displayName": "New York City",
    "city": "New York",
    "state": "NY",
    "country": "US",
    "lat": 40.7128,
    "lng": -74.006,
    "region": "us-east",
    "opened": 2014,
    "capacityMW": 5,
    "renewable": false,
    "pue": 1.4,
    "certifications": [
      "ISO 27001"
    ],
    "metadata": {
      "url": "https://www.cloudflare.com/network/"
    },
    "verified": true,
    "source": "official"
  },
  {
    "id": "cloudflare-los-angeles",
    "provider": "Cloudflare",
    "providerType": "edge-cdn",
    "name": "Los Angeles",
    "displayName": "Los Angeles, California",
    "city": "Los Angeles",
    "state": "CA",
    "country": "US",
    "lat": 34.0522,
    "lng": -118.2437,
    "region": "us-west",
    "opened": 2014,
    "capacityMW": 5,
    "renewable": false,
    "pue": 1.42,
    "certifications": [
      "ISO 27001"
    ],
    "metadata": {
      "url": "https://www.cloudflare.com/network/"
    },
    "verified": true,
    "source": "official"
  },
  {
    "id": "cloudflare-chicago",
    "provider": "Cloudflare",
    "providerType": "edge-cdn",
    "name": "Chicago",
    "displayName": "Chicago, Illinois",
    "city": "Chicago",
    "state": "IL",
    "country": "US",
    "lat": 41.8781,
    "lng": -87.6298,
    "region": "us-central",
    "opened": 2015,
    "capacityMW": 4,
    "renewable": false,
    "pue": 1.43,
    "certifications": [
      "ISO 27001"
    ],
    "metadata": {
      "url": "https://www.cloudflare.com/network/"
    },
    "verified": true,
    "source": "official"
  },
  {
    "id": "cloudflare-dallas",
    "provider": "Cloudflare",
    "providerType": "edge-cdn",
    "name": "Dallas",
    "displayName": "Dallas, Texas",
    "city": "Dallas",
    "state": "TX",
    "country": "US",
    "lat": 32.7767,
    "lng": -96.797,
    "region": "us-south",
    "opened": 2015,
    "capacityMW": 4,
    "renewable": false,
    "pue": 1.41,
    "certifications": [
      "ISO 27001"
    ],
    "metadata": {
      "url": "https://www.cloudflare.com/network/"
    },
    "verified": true,
    "source": "official"
  },
  {
    "id": "cloudflare-miami",
    "provider": "Cloudflare",
    "providerType": "edge-cdn",
    "name": "Miami",
    "displayName": "Miami, Florida",
    "city": "Miami",
    "state": "FL",
    "country": "US",
    "lat": 25.7617,
    "lng": -80.1918,
    "region": "us-south",
    "opened": 2016,
    "capacityMW": 3,
    "renewable": false,
    "pue": 1.45,
    "certifications": [
      "ISO 27001"
    ],
    "metadata": {
      "url": "https://www.cloudflare.com/network/"
    },
    "verified": true,
    "source": "official"
  },
  {
    "id": "flexential-denver",
    "provider": "Flexential",
    "providerType": "colocation",
    "name": "Denver",
    "displayName": "Denver, Colorado",
    "city": "Denver",
    "state": "CO",
    "country": "US",
    "lat": 39.7392,
    "lng": -104.9903,
    "region": "us-central",
    "opened": 2008,
    "capacityMW": 12,
    "renewable": false,
    "pue": 1.38,
    "certifications": [
      "ISO 27001",
      "SOC 2"
    ],
    "metadata": {
      "url": "https://www.flexential.com/data-centers",
      "peeringDbId": 1221,
      "netCount": 9,
      "ixCount": 0,
      "carrierCount": 1,
      "address1": "1850 Pearl"
    },
    "verified": true,
    "source": "official"
  },
  {
    "id": "flexential-portland",
    "provider": "Flexential",
    "providerType": "colocation",
    "name": "Portland",
    "displayName": "Portland, Oregon",
    "city": "Portland",
    "state": "OR",
    "country": "US",
    "lat": 45.5152,
    "lng": -122.6784,
    "region": "us-west",
    "opened": 2010,
    "capacityMW": 10,
    "renewable": true,
    "pue": 1.36,
    "certifications": [
      "ISO 27001",
      "SOC 2"
    ],
    "metadata": {
      "url": "https://www.flexential.com/data-centers",
      "peeringDbId": 13512,
      "netCount": 2,
      "ixCount": 0,
      "carrierCount": 0,
      "address1": "1335 NW Northrup St",
      "zipcode": "97209-2807",
      "clli": "PTLGORIA"
    },
    "verified": true,
    "source": "official"
  },
  {
    "id": "xai-memphis-colossus",
    "provider": "xAI",
    "providerType": "tech-giant",
    "name": "Colossus Supercomputer",
    "displayName": "Memphis, Tennessee (Colossus)",
    "city": "Memphis",
    "state": "TN",
    "country": "US",
    "lat": 35.1495,
    "lng": -90.049,
    "region": "us-south",
    "opened": 2024,
    "capacityMW": 150,
    "renewable": false,
    "pue": 1.35,
    "certifications": [],
    "metadata": {
      "url": "https://x.ai/",
      "notes": "World's largest AI supercomputer, 100k+ H100 GPUs, 14 portable gas generators, plans for 1M GPUs"
    },
    "verified": true,
    "source": "official"
  },
  {
    "id": "xai-palo-alto",
    "provider": "xAI",
    "providerType": "tech-giant",
    "name": "xAI Headquarters",
    "displayName": "Palo Alto, California (HQ)",
    "city": "Palo Alto",
    "state": "CA",
    "country": "US",
    "lat": 37.4443,
    "lng": -122.1598,
    "region": "us-west",
    "opened": 2023,
    "capacityMW": 5,
    "renewable": true,
    "pue": 1.2,
    "certifications": [],
    "metadata": {
      "url": "https://x.ai/",
      "notes": "Stanford Research Park headquarters"
    },
    "verified": true,
    "source": "official"
  },
  {
    "id": "aws-local-boston",
    "provider": "AWS",
    "providerType": "hyperscale-cloud",
    "name": "us-east-1-bos-1",
    "displayName": "AWS Local Zone (Boston)",
    "city": "Boston",
    "state": "MA",
    "country": "US",
    "lat": 42.3601,
    "lng": -71.0589,
    "region": "us-east",
    "availabilityZones": 1,
    "opened": 2021,
    "capacityMW": 10,
    "renewable": true,
    "pue": 1.3,
    "certifications": [
      "ISO 27001",
      "SOC 2"
    ],
    "metadata": {
      "url": "https://aws.amazon.com/about-aws/global-infrastructure/localzones/",
      "localZone": true
    },
    "verified": true,
    "source": "official",
    "lastUpdated": "2026-02-22T09:10:45.329Z",
    "powerStatus": "none",
    "waterStatus": "none"
  },
  {
    "id": "aws-local-houston",
    "provider": "AWS",
    "providerType": "hyperscale-cloud",
    "name": "us-east-1-iah-1",
    "displayName": "AWS Local Zone (Houston)",
    "city": "Houston",
    "state": "TX",
    "country": "US",
    "lat": 29.7604,
    "lng": -95.3698,
    "region": "us-east",
    "availabilityZones": 1,
    "opened": 2021,
    "capacityMW": 10,
    "renewable": false,
    "pue": 1.3,
    "certifications": [
      "ISO 27001",
      "SOC 2"
    ],
    "metadata": {
      "url": "https://aws.amazon.com/about-aws/global-infrastructure/localzones/",
      "localZone": true
    },
    "verified": true,
    "source": "official",
    "lastUpdated": "2026-02-22T09:10:45.329Z",
    "powerStatus": "none",
    "waterStatus": "none"
  },
  {
    "id": "aws-local-minneapolis",
    "provider": "AWS",
    "providerType": "hyperscale-cloud",
    "name": "us-east-1-msp-1",
    "displayName": "AWS Local Zone (Minneapolis)",
    "city": "Minneapolis",
    "state": "MN",
    "country": "US",
    "lat": 44.9778,
    "lng": -93.265,
    "region": "us-east",
    "availabilityZones": 1,
    "opened": 2022,
    "capacityMW": 10,
    "renewable": true,
    "pue": 1.3,
    "certifications": [
      "ISO 27001",
      "SOC 2"
    ],
    "metadata": {
      "url": "https://aws.amazon.com/about-aws/global-infrastructure/localzones/",
      "localZone": true
    },
    "verified": true,
    "source": "official",
    "lastUpdated": "2026-02-22T09:10:45.329Z",
    "powerStatus": "none",
    "waterStatus": "none"
  },
  {
    "id": "aws-local-philadelphia",
    "provider": "AWS",
    "providerType": "hyperscale-cloud",
    "name": "us-east-1-phl-1",
    "displayName": "AWS Local Zone (Philadelphia)",
    "city": "Philadelphia",
    "state": "PA",
    "country": "US",
    "lat": 39.9526,
    "lng": -75.1652,
    "region": "us-east",
    "availabilityZones": 1,
    "opened": 2021,
    "capacityMW": 10,
    "renewable": false,
    "pue": 1.3,
    "certifications": [
      "ISO 27001",
      "SOC 2"
    ],
    "metadata": {
      "url": "https://aws.amazon.com/about-aws/global-infrastructure/localzones/",
      "localZone": true
    },
    "verified": true,
    "source": "official",
    "lastUpdated": "2026-02-22T09:10:45.329Z",
    "powerStatus": "none",
    "waterStatus": "none"
  },
  {
    "id": "aws-local-kansas-city",
    "provider": "AWS",
    "providerType": "hyperscale-cloud",
    "name": "us-east-1-mci-1",
    "displayName": "AWS Local Zone (Kansas City)",
    "city": "Kansas City",
    "state": "MO",
    "country": "US",
    "lat": 39.0997,
    "lng": -94.5786,
    "region": "us-east",
    "availabilityZones": 1,
    "opened": 2022,
    "capacityMW": 10,
    "renewable": false,
    "pue": 1.3,
    "certifications": [
      "ISO 27001",
      "SOC 2"
    ],
    "metadata": {
      "url": "https://aws.amazon.com/about-aws/global-infrastructure/localzones/",
      "localZone": true
    },
    "verified": true,
    "source": "official",
    "lastUpdated": "2026-02-22T09:10:45.329Z",
    "powerStatus": "none",
    "waterStatus": "none"
  },
  {
    "id": "equinix-ny5",
    "provider": "Equinix",
    "providerType": "colocation",
    "name": "NY5",
    "displayName": "Equinix NY5",
    "city": "Secaucus",
    "state": "NJ",
    "country": "US",
    "lat": 40.7895,
    "lng": -74.0565,
    "region": "northeast",
    "opened": 2010,
    "capacityMW": 18,
    "renewable": false,
    "pue": 1.45,
    "certifications": [
      "ISO 27001",
      "SOC 2",
      "PCI DSS"
    ],
    "metadata": {
      "url": "https://www.equinix.com/data-centers/americas-colocation/united-states-colocation/new-york-data-centers/ny5"
    },
    "verified": true,
    "source": "official",
    "lastUpdated": "2026-02-22T09:10:45.329Z",
    "powerStatus": "none",
    "waterStatus": "none"
  },
  {
    "id": "equinix-ch2",
    "provider": "Equinix",
    "providerType": "colocation",
    "name": "CH2",
    "displayName": "Equinix CH2",
    "city": "Chicago",
    "state": "IL",
    "country": "US",
    "lat": 41.8781,
    "lng": -87.6298,
    "region": "midwest",
    "opened": 2000,
    "capacityMW": 15,
    "renewable": false,
    "pue": 1.5,
    "certifications": [
      "ISO 27001",
      "SOC 2",
      "PCI DSS"
    ],
    "metadata": {
      "url": "https://www.equinix.com/data-centers/americas-colocation/united-states-colocation/chicago-data-centers/ch2",
      "peeringDbId": 7,
      "netCount": 329,
      "ixCount": 10,
      "carrierCount": 13,
      "address1": "350 E Cermak Rd",
      "zipcode": "60616-1568",
      "clli": "CHCGIL"
    },
    "verified": true,
    "source": "official",
    "lastUpdated": "2026-02-22T09:10:45.329Z",
    "powerStatus": "none",
    "waterStatus": "none"
  },
  {
    "id": "equinix-sv5",
    "provider": "Equinix",
    "providerType": "colocation",
    "name": "SV5",
    "displayName": "Equinix SV5",
    "city": "San Jose",
    "state": "CA",
    "country": "US",
    "lat": 37.3382,
    "lng": -121.8863,
    "region": "west",
    "opened": 2001,
    "capacityMW": 20,
    "renewable": true,
    "pue": 1.42,
    "certifications": [
      "ISO 27001",
      "SOC 2",
      "PCI DSS"
    ],
    "metadata": {
      "url": "https://www.equinix.com/data-centers/americas-colocation/united-states-colocation/silicon-valley-data-centers/sv5"
    },
    "verified": true,
    "source": "official",
    "lastUpdated": "2026-02-22T09:10:45.329Z",
    "powerStatus": "none",
    "waterStatus": "none"
  },
  {
    "id": "equinix-bo1",
    "provider": "Equinix",
    "providerType": "colocation",
    "name": "BO1",
    "displayName": "Equinix BO1",
    "city": "Boston",
    "state": "MA",
    "country": "US",
    "lat": 42.3601,
    "lng": -71.0589,
    "region": "northeast",
    "opened": 2017,
    "capacityMW": 12,
    "renewable": true,
    "pue": 1.38,
    "certifications": [
      "ISO 27001",
      "SOC 2",
      "PCI DSS"
    ],
    "metadata": {
      "url": "https://www.equinix.com/data-centers/americas-colocation/united-states-colocation/boston-data-centers/bo1"
    },
    "verified": true,
    "source": "official",
    "lastUpdated": "2026-02-22T09:10:45.329Z",
    "powerStatus": "none",
    "waterStatus": "none"
  },
  {
    "id": "digital-realty-phoenix",
    "provider": "Digital Realty",
    "providerType": "colocation",
    "name": "PHX1",
    "displayName": "Digital Realty Phoenix",
    "city": "Phoenix",
    "state": "AZ",
    "country": "US",
    "lat": 33.4484,
    "lng": -112.074,
    "region": "southwest",
    "opened": 2015,
    "capacityMW": 25,
    "renewable": true,
    "pue": 1.4,
    "certifications": [
      "ISO 27001",
      "SOC 2"
    ],
    "metadata": {
      "url": "https://www.digitalrealty.com/data-centers/americas/phoenix"
    },
    "verified": true,
    "source": "official",
    "lastUpdated": "2026-02-22T09:10:45.329Z",
    "powerStatus": "none",
    "waterStatus": "none"
  },
  {
    "id": "digital-realty-portland",
    "provider": "Digital Realty",
    "providerType": "colocation",
    "name": "PDX1",
    "displayName": "Digital Realty Portland (Hillsboro)",
    "city": "Hillsboro",
    "state": "OR",
    "country": "US",
    "lat": 45.5231,
    "lng": -122.989,
    "region": "northwest",
    "opened": 2018,
    "capacityMW": 32,
    "renewable": true,
    "pue": 1.28,
    "certifications": [
      "ISO 27001",
      "SOC 2"
    ],
    "metadata": {
      "url": "https://www.digitalrealty.com/data-centers/americas/portland",
      "peeringDbId": 2444,
      "netCount": 10,
      "ixCount": 1,
      "carrierCount": 2,
      "address1": "3935 NE Aloclek Dr",
      "address2": "Building C",
      "zipcode": "97124"
    },
    "verified": true,
    "source": "official",
    "lastUpdated": "2026-02-22T09:10:45.329Z",
    "powerStatus": "none",
    "waterStatus": "none"
  },
  {
    "id": "digital-realty-atlanta",
    "provider": "Digital Realty",
    "providerType": "colocation",
    "name": "ATL1",
    "displayName": "Digital Realty Atlanta",
    "city": "Atlanta",
    "state": "GA",
    "country": "US",
    "lat": 33.749,
    "lng": -84.388,
    "region": "southeast",
    "opened": 2013,
    "capacityMW": 20,
    "renewable": false,
    "pue": 1.45,
    "certifications": [
      "ISO 27001",
      "SOC 2"
    ],
    "metadata": {
      "url": "https://www.digitalrealty.com/data-centers/americas/atlanta",
      "peeringDbId": 125,
      "netCount": 190,
      "ixCount": 4,
      "carrierCount": 7,
      "address1": "56 Marietta Street",
      "zipcode": "30303",
      "clli": "ATLNGA"
    },
    "verified": true,
    "source": "official",
    "lastUpdated": "2026-02-22T09:10:45.329Z",
    "powerStatus": "none",
    "waterStatus": "none"
  },
  {
    "id": "cyrusone-houston-west",
    "provider": "CyrusOne",
    "providerType": "colocation",
    "name": "Houston West",
    "displayName": "CyrusOne Houston West",
    "city": "Houston",
    "state": "TX",
    "country": "US",
    "lat": 29.7604,
    "lng": -95.3698,
    "region": "south",
    "opened": 2016,
    "capacityMW": 28,
    "renewable": false,
    "pue": 1.42,
    "certifications": [
      "ISO 27001",
      "SOC 2"
    ],
    "metadata": {
      "url": "https://cyrusone.com/data-centers/houston/",
      "peeringDbId": 16591,
      "netCount": 0,
      "ixCount": 0,
      "carrierCount": 0,
      "address1": "11003 Corporate Centre Drive",
      "zipcode": "77041"
    },
    "verified": true,
    "source": "official",
    "lastUpdated": "2026-02-22T09:10:45.329Z",
    "powerStatus": "none",
    "waterStatus": "none"
  },
  {
    "id": "cyrusone-phoenix",
    "provider": "CyrusOne",
    "providerType": "colocation",
    "name": "Phoenix",
    "displayName": "CyrusOne Phoenix",
    "city": "Phoenix",
    "state": "AZ",
    "country": "US",
    "lat": 33.4484,
    "lng": -112.074,
    "region": "southwest",
    "opened": 2018,
    "capacityMW": 30,
    "renewable": true,
    "pue": 1.35,
    "certifications": [
      "ISO 27001",
      "SOC 2"
    ],
    "metadata": {
      "url": "https://cyrusone.com/data-centers/phoenix/",
      "peeringDbId": 1488,
      "netCount": 16,
      "ixCount": 1,
      "carrierCount": 2,
      "address1": "2335 South Ellis Road",
      "zipcode": "85286"
    },
    "verified": true,
    "source": "official",
    "lastUpdated": "2026-02-22T09:10:45.329Z",
    "powerStatus": "none",
    "waterStatus": "none"
  },
  {
    "id": "cyrusone-cincinnati",
    "provider": "CyrusOne",
    "providerType": "colocation",
    "name": "Cincinnati",
    "displayName": "CyrusOne Cincinnati",
    "city": "Cincinnati",
    "state": "OH",
    "country": "US",
    "lat": 39.1031,
    "lng": -84.512,
    "region": "midwest",
    "opened": 2014,
    "capacityMW": 22,
    "renewable": false,
    "pue": 1.48,
    "certifications": [
      "ISO 27001",
      "SOC 2"
    ],
    "metadata": {
      "url": "https://cyrusone.com/data-centers/cincinnati/",
      "peeringDbId": 1467,
      "netCount": 7,
      "ixCount": 1,
      "carrierCount": 1,
      "address1": "209-229 West 7th St",
      "zipcode": "45202",
      "clli": "CNCNOH"
    },
    "verified": true,
    "source": "official",
    "lastUpdated": "2026-02-22T09:10:45.329Z",
    "powerStatus": "none",
    "waterStatus": "none"
  },
  {
    "id": "qts-suwanee",
    "provider": "QTS",
    "providerType": "colocation",
    "name": "Suwanee",
    "displayName": "QTS Suwanee",
    "city": "Suwanee",
    "state": "GA",
    "country": "US",
    "lat": 34.0515,
    "lng": -84.0713,
    "region": "southeast",
    "opened": 2010,
    "capacityMW": 38,
    "renewable": true,
    "pue": 1.35,
    "certifications": [
      "ISO 27001",
      "SOC 2",
      "HIPAA"
    ],
    "metadata": {
      "url": "https://www.qtsdatacenters.com/data-centers/atlanta-suwanee"
    },
    "verified": true,
    "source": "official",
    "lastUpdated": "2026-02-22T09:10:45.329Z",
    "powerStatus": "none",
    "waterStatus": "none"
  },
  {
    "id": "qts-irving",
    "provider": "QTS",
    "providerType": "colocation",
    "name": "Irving",
    "displayName": "QTS Irving",
    "city": "Irving",
    "state": "TX",
    "country": "US",
    "lat": 32.814,
    "lng": -96.9489,
    "region": "south",
    "opened": 2012,
    "capacityMW": 40,
    "renewable": false,
    "pue": 1.42,
    "certifications": [
      "ISO 27001",
      "SOC 2",
      "HIPAA"
    ],
    "metadata": {
      "url": "https://www.qtsdatacenters.com/data-centers/dallas-fort-worth",
      "peeringDbId": 3363,
      "netCount": 14,
      "ixCount": 3,
      "carrierCount": 3,
      "address1": "6431 Longhorn Drive",
      "zipcode": "75063",
      "clli": "IRNGTXEM"
    },
    "verified": true,
    "source": "official",
    "lastUpdated": "2026-02-22T09:10:45.329Z",
    "powerStatus": "none",
    "waterStatus": "none"
  },
  {
    "id": "qts-sacramento",
    "provider": "QTS",
    "providerType": "colocation",
    "name": "Sacramento",
    "displayName": "QTS Sacramento",
    "city": "Sacramento",
    "state": "CA",
    "country": "US",
    "lat": 38.5816,
    "lng": -121.4944,
    "region": "west",
    "opened": 2015,
    "capacityMW": 30,
    "renewable": true,
    "pue": 1.38,
    "certifications": [
      "ISO 27001",
      "SOC 2"
    ],
    "metadata": {
      "url": "https://www.qtsdatacenters.com/data-centers/sacramento",
      "peeringDbId": 3359,
      "netCount": 13,
      "ixCount": 1,
      "carrierCount": 1,
      "address1": "1100 North Market Blvd",
      "zipcode": "95834"
    },
    "verified": true,
    "source": "official",
    "lastUpdated": "2026-02-22T09:10:45.329Z",
    "powerStatus": "none",
    "waterStatus": "none"
  },
  {
    "id": "coresite-ny2",
    "provider": "CoreSite",
    "providerType": "colocation",
    "name": "NY2",
    "displayName": "CoreSite NY2 (32 Avenue of Americas)",
    "city": "New York",
    "state": "NY",
    "country": "US",
    "lat": 40.7128,
    "lng": -74.006,
    "region": "northeast",
    "opened": 2014,
    "capacityMW": 16,
    "renewable": false,
    "pue": 1.45,
    "certifications": [
      "ISO 27001",
      "SOC 2",
      "PCI DSS"
    ],
    "metadata": {
      "url": "https://www.coresite.com/data-centers/locations/new-york/ny2"
    },
    "verified": true,
    "source": "official",
    "lastUpdated": "2026-02-22T09:10:45.329Z",
    "powerStatus": "none",
    "waterStatus": "none"
  },
  {
    "id": "coresite-ch1",
    "provider": "CoreSite",
    "providerType": "colocation",
    "name": "CH1",
    "displayName": "CoreSite CH1 (427 South LaSalle)",
    "city": "Chicago",
    "state": "IL",
    "country": "US",
    "lat": 41.8781,
    "lng": -87.6298,
    "region": "midwest",
    "opened": 2001,
    "capacityMW": 18,
    "renewable": false,
    "pue": 1.5,
    "certifications": [
      "ISO 27001",
      "SOC 2",
      "PCI DSS"
    ],
    "metadata": {
      "url": "https://www.coresite.com/data-centers/locations/chicago/ch1",
      "peeringDbId": 440,
      "netCount": 71,
      "ixCount": 6,
      "carrierCount": 3,
      "address1": "427 S. LaSalle",
      "zipcode": "60605",
      "clli": "CHCGILWU"
    },
    "verified": true,
    "source": "official",
    "lastUpdated": "2026-02-22T09:10:45.329Z",
    "powerStatus": "none",
    "waterStatus": "none"
  },
  {
    "id": "coresite-bo1",
    "provider": "CoreSite",
    "providerType": "colocation",
    "name": "BO1",
    "displayName": "CoreSite BO1 (70 Inner Belt Road)",
    "city": "Somerville",
    "state": "MA",
    "country": "US",
    "lat": 42.3875,
    "lng": -71.0995,
    "region": "northeast",
    "opened": 2013,
    "capacityMW": 14,
    "renewable": true,
    "pue": 1.42,
    "certifications": [
      "ISO 27001",
      "SOC 2"
    ],
    "metadata": {
      "url": "https://www.coresite.com/data-centers/locations/boston/bo1",
      "peeringDbId": 584,
      "netCount": 38,
      "ixCount": 2,
      "carrierCount": 3,
      "address1": "70 Innerbelt Rd",
      "zipcode": "02143",
      "clli": "SOVLMAAB"
    },
    "verified": true,
    "source": "official",
    "lastUpdated": "2026-02-22T09:10:45.329Z",
    "powerStatus": "none",
    "waterStatus": "none"
  },
  {
    "id": "lumen-denver",
    "provider": "Lumen",
    "providerType": "colocation",
    "name": "Denver",
    "displayName": "Lumen Denver",
    "city": "Denver",
    "state": "CO",
    "country": "US",
    "lat": 39.7392,
    "lng": -104.9903,
    "region": "mountain",
    "opened": 2008,
    "capacityMW": 15,
    "renewable": false,
    "pue": 1.5,
    "certifications": [
      "ISO 27001",
      "SOC 2"
    ],
    "metadata": {
      "url": "https://www.lumen.com/en-us/hybrid-it-cloud/colocation.html",
      "peeringDbId": 1221,
      "netCount": 9,
      "ixCount": 0,
      "carrierCount": 1,
      "address1": "1850 Pearl"
    },
    "verified": true,
    "source": "official",
    "lastUpdated": "2026-02-22T09:10:45.329Z",
    "powerStatus": "none",
    "waterStatus": "none"
  },
  {
    "id": "lumen-seattle",
    "provider": "Lumen",
    "providerType": "colocation",
    "name": "Seattle",
    "displayName": "Lumen Seattle",
    "city": "Seattle",
    "state": "WA",
    "country": "US",
    "lat": 47.6062,
    "lng": -122.3321,
    "region": "northwest",
    "opened": 2010,
    "capacityMW": 18,
    "renewable": true,
    "pue": 1.42,
    "certifications": [
      "ISO 27001",
      "SOC 2"
    ],
    "metadata": {
      "url": "https://www.lumen.com/en-us/hybrid-it-cloud/colocation.html",
      "peeringDbId": 8599,
      "netCount": 7,
      "ixCount": 1,
      "carrierCount": 0,
      "address1": "140 4th Ave N",
      "zipcode": "98109"
    },
    "verified": true,
    "source": "official",
    "lastUpdated": "2026-02-22T09:10:45.329Z",
    "powerStatus": "none",
    "waterStatus": "none"
  },
  {
    "id": "lumen-minneapolis",
    "provider": "Lumen",
    "providerType": "colocation",
    "name": "Minneapolis",
    "displayName": "Lumen Minneapolis",
    "city": "Minneapolis",
    "state": "MN",
    "country": "US",
    "lat": 44.9778,
    "lng": -93.265,
    "region": "midwest",
    "opened": 2011,
    "capacityMW": 12,
    "renewable": false,
    "pue": 1.48,
    "certifications": [
      "ISO 27001",
      "SOC 2"
    ],
    "metadata": {
      "url": "https://www.lumen.com/en-us/hybrid-it-cloud/colocation.html",
      "peeringDbId": 9855,
      "netCount": 0,
      "ixCount": 0,
      "carrierCount": 0,
      "address1": "1001 3rd Ave South",
      "zipcode": "55404"
    },
    "verified": true,
    "source": "official",
    "lastUpdated": "2026-02-22T09:10:45.329Z",
    "powerStatus": "none",
    "waterStatus": "none"
  },
  {
    "id": "pdb-1",
    "provider": "Equinix",
    "providerType": "colocation",
    "name": "Equinix DC1-DC15,DC21-DC22 - Ashburn",
    "displayName": "Equinix DC1-DC15,DC21-DC22 - Ashburn",
    "city": "Ashburn",
    "state": "VA",
    "country": "US",
    "lat": 39.016363,
    "lng": -77.459023,
    "verified": false,
    "source": "community",
    "metadata": {
      "url": "http://www.equinix.com/",
      "address1": "21715 Filigree Ct",
      "address2": "Building F",
      "zipcode": "20147-6205",
      "clli": "ASBNVA",
      "peeringDbId": 1,
      "netCount": 503,
      "ixCount": 8,
      "carrierCount": 13
    }
  },
  {
    "id": "pdb-2",
    "provider": "Digital Realty",
    "providerType": "colocation",
    "name": "Digital Realty SFO (200 Paul)",
    "displayName": "Digital Realty SFO (200 Paul)",
    "city": "San Francisco",
    "state": "CA",
    "country": "US",
    "lat": 37.723407,
    "lng": -122.397923,
    "verified": false,
    "source": "community",
    "metadata": {
      "url": "https://www.digitalrealty.com",
      "address1": "200 Paul Ave",
      "zipcode": "94110",
      "clli": "SNFCCA",
      "peeringDbId": 2,
      "netCount": 45,
      "ixCount": 2,
      "carrierCount": 2
    }
  },
  {
    "id": "pdb-5",
    "provider": "Equinix",
    "providerType": "colocation",
    "name": "Equinix SV8 - Silicon Valley, Palo Alto",
    "displayName": "Equinix SV8 - Silicon Valley, Palo Alto",
    "city": "Palo Alto",
    "state": "CA",
    "country": "US",
    "lat": 37.445896,
    "lng": -122.160775,
    "verified": false,
    "source": "community",
    "metadata": {
      "url": "https://www.equinix.com/locations/americas-colocation/united-states-colocation/silicon-valley-data-centers/sv8/",
      "address1": "529 Bryant St",
      "zipcode": "94301-1704",
      "clli": "PLALCA",
      "peeringDbId": 5,
      "netCount": 68,
      "ixCount": 4,
      "carrierCount": 2
    }
  },
  {
    "id": "pdb-6",
    "provider": "Equinix",
    "providerType": "colocation",
    "name": "Equinix SV1/SV5/SV10 - Silicon Valley, San Jose",
    "displayName": "Equinix SV1/SV5/SV10 - Silicon Valley, San Jose",
    "city": "San Jose",
    "state": "CA",
    "country": "US",
    "lat": 37.241767,
    "lng": -121.782967,
    "verified": false,
    "source": "community",
    "metadata": {
      "url": "https://www.equinix.com/locations/americas-colocation/united-states-colocation/silicon-valley-data-centers/",
      "address1": "11 Great Oaks Blvd",
      "zipcode": "95119-1242",
      "clli": "SNJSCA",
      "peeringDbId": 6,
      "netCount": 280,
      "ixCount": 8,
      "carrierCount": 7
    }
  },
  {
    "id": "pdb-8",
    "provider": "Equinix",
    "providerType": "colocation",
    "name": "Equinix LA1 - Los Angeles",
    "displayName": "Equinix LA1 - Los Angeles",
    "city": "Los Angeles",
    "state": "CA",
    "country": "US",
    "lat": 34.047501,
    "lng": -118.2573,
    "verified": false,
    "source": "community",
    "metadata": {
      "url": "https://www.equinix.com/locations/americas-colocation/united-states-colocation/los-angeles-data-centers/la1/",
      "address1": "600 W 7th St",
      "zipcode": "90017-3859",
      "clli": "LSANCA",
      "peeringDbId": 8,
      "netCount": 142,
      "ixCount": 6,
      "carrierCount": 9
    }
  },
  {
    "id": "pdb-9",
    "provider": "Equinix",
    "providerType": "colocation",
    "name": "Equinix NY1 - New York, Newark",
    "displayName": "Equinix NY1 - New York, Newark",
    "city": "Newark",
    "state": "NJ",
    "country": "US",
    "lat": 40.736844,
    "lng": -74.173402,
    "verified": false,
    "source": "community",
    "metadata": {
      "url": "https://www.equinix.com/locations/americas-colocation/united-states-colocation/new-york-data-centers/ny1/",
      "address1": "165 Halsey St",
      "zipcode": "07102-2834",
      "clli": "NWRKNJ",
      "peeringDbId": 9,
      "netCount": 34,
      "ixCount": 2,
      "carrierCount": 5
    }
  },
  {
    "id": "pdb-10",
    "provider": "Digital Realty",
    "providerType": "colocation",
    "name": "Digital Realty NYC (60 Hudson)",
    "displayName": "Digital Realty NYC (60 Hudson)",
    "city": "New York",
    "state": "NY",
    "country": "US",
    "lat": 40.717723,
    "lng": -74.008299,
    "verified": false,
    "source": "community",
    "metadata": {
      "url": "https://www.digitalrealty.com",
      "address1": "60 Hudson St",
      "zipcode": "10013-3315",
      "clli": "NYCMNY",
      "peeringDbId": 10,
      "netCount": 160,
      "ixCount": 8,
      "carrierCount": 8
    }
  },
  {
    "id": "pdb-11",
    "provider": "Equinix",
    "providerType": "colocation",
    "name": "Equinix AT2/AT3 - Atlanta",
    "displayName": "Equinix AT2/AT3 - Atlanta",
    "city": "Atlanta",
    "state": "GA",
    "country": "US",
    "lat": 33.755456,
    "lng": -84.39153,
    "verified": false,
    "source": "community",
    "metadata": {
      "url": "http://www.equinix.com/",
      "address1": "56 Marietta St NW",
      "zipcode": "30303-2885",
      "clli": "ATLNGA",
      "peeringDbId": 11,
      "netCount": 23,
      "ixCount": 1,
      "carrierCount": 3
    }
  },
  {
    "id": "pdb-15",
    "provider": "Equinix",
    "providerType": "colocation",
    "name": "Equinix MI1 - Miami, NOTA",
    "displayName": "Equinix MI1 - Miami, NOTA",
    "city": "Miami",
    "state": "FL",
    "country": "US",
    "lat": 25.782648,
    "lng": -80.193157,
    "verified": false,
    "source": "community",
    "metadata": {
      "url": "https://www.equinix.com/locations/americas-colocation/united-states-colocation/miami-data-centers/mi1/",
      "address1": "50 NE 9th St",
      "zipcode": "33132-1709",
      "clli": "MIAUFL",
      "peeringDbId": 15,
      "netCount": 324,
      "ixCount": 9,
      "carrierCount": 15
    }
  },
  {
    "id": "pdb-16",
    "provider": "Digital Realty",
    "providerType": "colocation",
    "name": "Digital Realty NYC (111 8th Ave)",
    "displayName": "Digital Realty NYC (111 8th Ave)",
    "city": "New York",
    "state": "NY",
    "country": "US",
    "lat": 40.741469,
    "lng": -74.003387,
    "verified": false,
    "source": "community",
    "metadata": {
      "url": "https://www.digitalrealty.com",
      "address1": "111 8th Ave",
      "zipcode": "10011",
      "clli": "NYCMNY",
      "peeringDbId": 16,
      "netCount": 132,
      "ixCount": 6,
      "carrierCount": 3
    }
  },
  {
    "id": "pdb-20",
    "provider": "CoreSite",
    "providerType": "colocation",
    "name": "CoreSite - San Jose (SV1)",
    "displayName": "CoreSite - San Jose (SV1)",
    "city": "San Jose",
    "state": "CA",
    "country": "US",
    "lat": 37.334147,
    "lng": -121.891649,
    "verified": false,
    "source": "community",
    "metadata": {
      "url": "http://www.coresite.com",
      "address1": "55 S. Market Street",
      "zipcode": "95113",
      "clli": "SNJSCAJN",
      "peeringDbId": 20,
      "netCount": 56,
      "ixCount": 4,
      "carrierCount": 4
    }
  },
  {
    "id": "pdb-23",
    "provider": "Digital Realty",
    "providerType": "colocation",
    "name": "Digital Realty SFO (365 Main)",
    "displayName": "Digital Realty SFO (365 Main)",
    "city": "San Francisco",
    "state": "CA",
    "country": "US",
    "lat": 37.788669,
    "lng": -122.390509,
    "verified": false,
    "source": "community",
    "metadata": {
      "url": "https://www.digitalrealty.com",
      "address1": "365 Main Street",
      "zipcode": "94105",
      "clli": "SNFCCA",
      "peeringDbId": 23,
      "netCount": 36,
      "ixCount": 3,
      "carrierCount": 2
    }
  },
  {
    "id": "pdb-36",
    "provider": "Equinix",
    "providerType": "colocation",
    "name": "Equinix NY2/NY4/NY5/NY6 - New York, Secaucus",
    "displayName": "Equinix NY2/NY4/NY5/NY6 - New York, Secaucus",
    "city": "Secaucus",
    "state": "NJ",
    "country": "US",
    "lat": 40.778534,
    "lng": -74.072237,
    "verified": false,
    "source": "community",
    "metadata": {
      "url": "https://www.equinix.com/locations/americas-colocation/united-states-colocation/new-york-data-centers/",
      "address1": "800 Secaucus Road",
      "zipcode": "07094",
      "clli": "SCCSNJ",
      "peeringDbId": 36,
      "netCount": 132,
      "ixCount": 9,
      "carrierCount": 7
    }
  },
  {
    "id": "pdb-38",
    "provider": "Equinix",
    "providerType": "colocation",
    "name": "Equinix NY9 - New York, 111 8th Avenue",
    "displayName": "Equinix NY9 - New York, 111 8th Avenue",
    "city": "New York",
    "state": "NY",
    "country": "US",
    "lat": 40.741469,
    "lng": -74.003387,
    "verified": false,
    "source": "community",
    "metadata": {
      "url": "https://www.equinix.com/locations/americas-colocation/united-states-colocation/new-york-data-centers/ny9/",
      "address1": "111 8th Ave",
      "zipcode": "10011",
      "clli": "NYCMNY",
      "peeringDbId": 38,
      "netCount": 82,
      "ixCount": 4,
      "carrierCount": 4
    }
  },
  {
    "id": "pdb-69",
    "provider": "Equinix",
    "providerType": "colocation",
    "name": "Equinix DA3 - Dallas",
    "displayName": "Equinix DA3 - Dallas",
    "city": "Dallas",
    "state": "TX",
    "country": "US",
    "lat": 32.800955,
    "lng": -96.81955,
    "verified": false,
    "source": "community",
    "metadata": {
      "url": "https://www.equinix.com/locations/americas-colocation/united-states-colocation/dallas-data-centers/da3/",
      "address1": "1950 N Stemmons Fwy",
      "zipcode": "75207",
      "clli": "DLLSTX",
      "peeringDbId": 69,
      "netCount": 104,
      "ixCount": 6,
      "carrierCount": 6
    }
  },
  {
    "id": "pdb-86",
    "provider": "Equinix",
    "providerType": "colocation",
    "name": "Equinix SE2/SE3 - Seattle",
    "displayName": "Equinix SE2/SE3 - Seattle",
    "city": "Seattle",
    "state": "WA",
    "country": "US",
    "lat": 47.614358,
    "lng": -122.338864,
    "verified": false,
    "source": "community",
    "metadata": {
      "url": "https://www.equinix.com/locations/americas-colocation/united-states-colocation/seattle-data-centers/",
      "address1": "2001 Sixth Avenue",
      "zipcode": "98121",
      "clli": "STTLWA",
      "peeringDbId": 86,
      "netCount": 110,
      "ixCount": 5,
      "carrierCount": 4
    }
  },
  {
    "id": "pdb-120",
    "provider": "Digital Realty",
    "providerType": "colocation",
    "name": "Digital Realty NYC (32 AofA)",
    "displayName": "Digital Realty NYC (32 AofA)",
    "city": "New York",
    "state": "NY",
    "country": "US",
    "lat": 40.72,
    "lng": -74.004561,
    "verified": false,
    "source": "community",
    "metadata": {
      "url": "https://www.digitalrealty.com",
      "address1": "32 6th Ave (Avenue of the Americas)",
      "zipcode": "10013",
      "clli": "NYCMNY",
      "peeringDbId": 120,
      "netCount": 40,
      "ixCount": 3,
      "carrierCount": 1
    }
  },
  {
    "id": "pdb-146",
    "provider": "Equinix",
    "providerType": "colocation",
    "name": "Equinix PH1 - Philadelphia",
    "displayName": "Equinix PH1 - Philadelphia",
    "city": "Philadelphia",
    "state": "PA",
    "country": "US",
    "lat": 39.959668,
    "lng": -75.161377,
    "verified": false,
    "source": "community",
    "metadata": {
      "url": "http://www.equinix.com/",
      "address1": "401 North Broad Street",
      "zipcode": "19108",
      "peeringDbId": 146,
      "netCount": 20,
      "ixCount": 1,
      "carrierCount": 0
    }
  },
  {
    "id": "pdb-171",
    "provider": "Digital Realty",
    "providerType": "colocation",
    "name": "Digital Realty PHX10 (120 E Van Buren)",
    "displayName": "Digital Realty PHX10 (120 E Van Buren)",
    "city": "Phoenix",
    "state": "AZ",
    "country": "US",
    "lat": 33.452003,
    "lng": -112.072042,
    "verified": false,
    "source": "community",
    "metadata": {
      "url": "https://www.digitalrealty.com",
      "address1": "120 East Van Buren Street",
      "zipcode": "85004",
      "clli": "PHNXAZ",
      "peeringDbId": 171,
      "netCount": 32,
      "ixCount": 3,
      "carrierCount": 2
    }
  },
  {
    "id": "pdb-186",
    "provider": "Netrality Data Centers",
    "providerType": "colocation",
    "name": "Netrality - Indy Telcom Center - 733 W. Henry",
    "displayName": "Netrality - Indy Telcom Center - 733 W. Henry",
    "city": "Indianapolis",
    "state": "IN",
    "country": "US",
    "lat": 39.75988,
    "lng": -86.172275,
    "verified": false,
    "source": "community",
    "metadata": {
      "url": "https://netrality.com/data-center/733-indy-telcom-center-indianapolis/",
      "address1": "733 W. Henry St",
      "zipcode": "46225",
      "clli": "IPLVIN",
      "peeringDbId": 186,
      "netCount": 41,
      "ixCount": 2,
      "carrierCount": 2
    }
  },
  {
    "id": "pdb-219",
    "provider": "Markley Group",
    "providerType": "colocation",
    "name": "Markley Group One Summer Street Boston",
    "displayName": "Markley Group One Summer Street Boston",
    "city": "Boston",
    "state": "MA",
    "country": "US",
    "lat": 42.354692,
    "lng": -71.060266,
    "verified": false,
    "source": "community",
    "metadata": {
      "url": "http://www.markleygroup.com/",
      "address1": "1 Summer Street",
      "zipcode": "02110",
      "clli": "BSTNMA",
      "peeringDbId": 219,
      "netCount": 80,
      "ixCount": 1,
      "carrierCount": 3
    }
  },
  {
    "id": "pdb-275",
    "provider": "1547 Critical Systems Realty",
    "providerType": "colocation",
    "name": "PTOR1",
    "displayName": "PTOR1",
    "city": "Portland",
    "state": "OR",
    "country": "US",
    "lat": 45.521366,
    "lng": -122.680792,
    "verified": false,
    "source": "community",
    "metadata": {
      "url": "https://www.1547realty.com",
      "address1": "921 SW Washington St",
      "zipcode": "97205",
      "clli": "PTLDORPB",
      "peeringDbId": 275,
      "netCount": 69,
      "ixCount": 2,
      "carrierCount": 3
    }
  },
  {
    "id": "pdb-283",
    "provider": "365 Data Centers",
    "providerType": "colocation",
    "name": "365 Data Centers Chicago (CH6)",
    "displayName": "365 Data Centers Chicago (CH6)",
    "city": "Chicago",
    "state": "IL",
    "country": "US",
    "lat": 41.876212,
    "lng": -87.631453,
    "verified": false,
    "source": "community",
    "metadata": {
      "url": "https://www.365datacenters.com/chicago-data-center/",
      "address1": "427 S. La Salle",
      "zipcode": "60605",
      "peeringDbId": 283,
      "netCount": 21,
      "ixCount": 2,
      "carrierCount": 0
    }
  },
  {
    "id": "pdb-332",
    "provider": "Netrality Data Centers",
    "providerType": "colocation",
    "name": "Netrality St. Louis - 900 Walnut",
    "displayName": "Netrality St. Louis - 900 Walnut",
    "city": "St. Louis",
    "state": "MO",
    "country": "US",
    "lat": 38.625536,
    "lng": -90.195238,
    "verified": false,
    "source": "community",
    "metadata": {
      "url": "https://netrality.com/data-center/900-walnut-st-louis/",
      "address1": "900 Walnut - Netrality Data Center Meet Me Room",
      "address2": "900 Walnut Street",
      "zipcode": "63101",
      "peeringDbId": 332,
      "netCount": 42,
      "ixCount": 5,
      "carrierCount": 2
    }
  },
  {
    "id": "pdb-350",
    "provider": "Tishman Real Estate Services",
    "providerType": "colocation",
    "name": "165 Halsey Meet-Me Room",
    "displayName": "165 Halsey Meet-Me Room",
    "city": "Newark",
    "state": "NJ",
    "country": "US",
    "lat": 40.736844,
    "lng": -74.173402,
    "verified": false,
    "source": "community",
    "metadata": {
      "url": "http://www.165halsey.com/",
      "address1": "165 Halsey St",
      "zipcode": "07102-2834",
      "clli": "NWRKNJ",
      "peeringDbId": 350,
      "netCount": 105,
      "ixCount": 5,
      "carrierCount": 6
    }
  },
  {
    "id": "pdb-363",
    "provider": "CoreSite",
    "providerType": "colocation",
    "name": "CoreSite - Los Angeles (LA2)",
    "displayName": "CoreSite - Los Angeles (LA2)",
    "city": "Los Angeles",
    "state": "CA",
    "country": "US",
    "lat": 34.058096,
    "lng": -118.235357,
    "verified": false,
    "source": "community",
    "metadata": {
      "url": "http://www.coresite.com",
      "address1": "900 N. Alameda",
      "zipcode": "90012",
      "clli": "LSANCAVJ",
      "peeringDbId": 363,
      "netCount": 194,
      "ixCount": 3,
      "carrierCount": 7
    }
  },
  {
    "id": "pdb-402",
    "provider": "Digital Realty",
    "providerType": "colocation",
    "name": "Digital Realty DFW (2323 Bryan St)",
    "displayName": "Digital Realty DFW (2323 Bryan St)",
    "city": "Dallas",
    "state": "TX",
    "country": "US",
    "lat": 32.787212,
    "lng": -96.794219,
    "verified": false,
    "source": "community",
    "metadata": {
      "url": "https://www.digitalrealty.com",
      "address1": "2323 Bryan St.",
      "zipcode": "75201",
      "clli": "DLLSTX",
      "peeringDbId": 402,
      "netCount": 61,
      "ixCount": 4,
      "carrierCount": 3
    }
  },
  {
    "id": "pdb-403",
    "provider": "Digital Realty",
    "providerType": "colocation",
    "name": "Digital Realty LAX (600 W 7th)",
    "displayName": "Digital Realty LAX (600 W 7th)",
    "city": "Los Angeles",
    "state": "CA",
    "country": "US",
    "lat": 34.047335,
    "lng": -118.25745,
    "verified": false,
    "source": "community",
    "metadata": {
      "url": "https://www.digitalrealty.com",
      "address1": "600 West 7th Street",
      "zipcode": "90017",
      "clli": "LSANCA",
      "peeringDbId": 403,
      "netCount": 54,
      "ixCount": 1,
      "carrierCount": 1
    }
  },
  {
    "id": "pdb-409",
    "provider": "Netrality Data Centers",
    "providerType": "colocation",
    "name": "Netrality Houston - 1301 Fannin",
    "displayName": "Netrality Houston - 1301 Fannin",
    "city": "Houston",
    "state": "TX",
    "country": "US",
    "lat": 29.753242,
    "lng": -95.365882,
    "verified": false,
    "source": "community",
    "metadata": {
      "url": "https://netrality.com/data-center/1301-fannin-houston/",
      "address1": "1301 Fannin - Netrality Data Center Meet Me Room",
      "address2": "1301 Fannin Street",
      "zipcode": "77002",
      "peeringDbId": 409,
      "netCount": 29,
      "ixCount": 6,
      "carrierCount": 2
    }
  },
  {
    "id": "pdb-410",
    "provider": "GI Property Management",
    "providerType": "colocation",
    "name": "KOMO Plaza Seattle (Formerly Fisher Plaza)",
    "displayName": "KOMO Plaza Seattle (Formerly Fisher Plaza)",
    "city": "Seattle",
    "state": "WA",
    "country": "US",
    "lat": 47.619238,
    "lng": -122.348278,
    "verified": false,
    "source": "community",
    "metadata": {
      "url": "http://www.komoplaza.com/",
      "address1": "140 4th Ave N",
      "zipcode": "98109",
      "clli": "STTLWAJM",
      "peeringDbId": 410,
      "netCount": 21,
      "ixCount": 2,
      "carrierCount": 1
    }
  },
  {
    "id": "pdb-435",
    "provider": "Netrality Data Centers",
    "providerType": "colocation",
    "name": "Netrality Kansas City - 1102 Grand",
    "displayName": "Netrality Kansas City - 1102 Grand",
    "city": "Kansas City",
    "state": "MO",
    "country": "US",
    "lat": 39.100941,
    "lng": -94.581036,
    "verified": false,
    "source": "community",
    "metadata": {
      "url": "https://netrality.com/data-center/1102-grand-kansas-city/",
      "address1": "1102 Grand - Netrality Data Center Meet Me Room",
      "address2": "1102 Grand Boulevard",
      "zipcode": "64106",
      "peeringDbId": 435,
      "netCount": 81,
      "ixCount": 4,
      "carrierCount": 5
    }
  },
  {
    "id": "pdb-436",
    "provider": "Equinix",
    "providerType": "colocation",
    "name": "Equinix SV3 - Silicon Valley, San Jose",
    "displayName": "Equinix SV3 - Silicon Valley, San Jose",
    "city": "San Jose",
    "state": "CA",
    "country": "US",
    "lat": 37.388235,
    "lng": -121.888457,
    "verified": false,
    "source": "community",
    "metadata": {
      "url": "https://www.equinix.com/locations/americas-colocation/united-states-colocation/silicon-valley-data-centers/sv3/",
      "address1": "1735 Lundy Ave",
      "zipcode": "95131",
      "peeringDbId": 436,
      "netCount": 23,
      "ixCount": 2,
      "carrierCount": 1
    }
  },
  {
    "id": "pdb-437",
    "provider": "Equinix",
    "providerType": "colocation",
    "name": "Equinix SV2 - Silicon Valley, Santa Clara",
    "displayName": "Equinix SV2 - Silicon Valley, Santa Clara",
    "city": "Santa Clara",
    "state": "CA",
    "country": "US",
    "lat": 37.378463,
    "lng": -121.954945,
    "verified": false,
    "source": "community",
    "metadata": {
      "url": "https://www.equinix.com/locations/americas-colocation/united-states-colocation/silicon-valley-data-centers/sv2/",
      "address1": "1350 Duane Ave",
      "zipcode": "95054",
      "peeringDbId": 437,
      "netCount": 24,
      "ixCount": 2,
      "carrierCount": 2
    }
  },
  {
    "id": "pdb-466",
    "provider": "Digital Realty",
    "providerType": "colocation",
    "name": "Digital Realty CHI (350 E Cermak)",
    "displayName": "Digital Realty CHI (350 E Cermak)",
    "city": "Chicago",
    "state": "IL",
    "country": "US",
    "lat": 41.85365,
    "lng": -87.618342,
    "verified": false,
    "source": "community",
    "metadata": {
      "url": "https://www.digitalrealty.com",
      "address1": "350 E Cermak Rd.",
      "zipcode": "60616-1568",
      "clli": "CHCGIL",
      "peeringDbId": 466,
      "netCount": 97,
      "ixCount": 7,
      "carrierCount": 5
    }
  },
  {
    "id": "pdb-505",
    "provider": "Equinix",
    "providerType": "colocation",
    "name": "Equinix DA - Dallas (previously Infomart Dallas)",
    "displayName": "Equinix DA - Dallas (previously Infomart Dallas)",
    "city": "Dallas",
    "state": "TX",
    "country": "US",
    "lat": 32.800748,
    "lng": -96.819412,
    "verified": false,
    "source": "community",
    "metadata": {
      "url": "https://www.equinix.com",
      "address1": "1950 N Stemmons Fwy",
      "zipcode": "75207-3134",
      "peeringDbId": 505,
      "netCount": 58,
      "ixCount": 3,
      "carrierCount": 4
    }
  },
  {
    "id": "pdb-539",
    "provider": "Equinix",
    "providerType": "colocation",
    "name": "Equinix DA4 - Dallas",
    "displayName": "Equinix DA4 - Dallas",
    "city": "Dallas",
    "state": "TX",
    "country": "US",
    "lat": 32.787212,
    "lng": -96.794219,
    "verified": false,
    "source": "community",
    "metadata": {
      "url": "https://www.equinix.com/locations/americas-colocation/united-states-colocation/dallas-data-centers/da4/",
      "address1": "2323 Bryan St.",
      "zipcode": "75201",
      "clli": "DLLSTX",
      "peeringDbId": 539,
      "netCount": 26,
      "ixCount": 3,
      "carrierCount": 4
    }
  },
  {
    "id": "pdb-547",
    "provider": "Hurricane Electric",
    "providerType": "colocation",
    "name": "Hurricane Electric Fremont 2",
    "displayName": "Hurricane Electric Fremont 2",
    "city": "Fremont",
    "state": "CA",
    "country": "US",
    "lat": 37.471809,
    "lng": -121.920111,
    "verified": false,
    "source": "community",
    "metadata": {
      "url": "https://he.net",
      "statusDashboard": "https://he.net",
      "address1": "48233 Warm Springs Blvd",
      "zipcode": "94539-7654",
      "clli": "FRMTCA",
      "peeringDbId": 547,
      "netCount": 304,
      "ixCount": 15,
      "carrierCount": 2
    }
  },
  {
    "id": "pdb-558",
    "provider": "Equinix",
    "providerType": "colocation",
    "name": "Equinix MI2 - Miami",
    "displayName": "Equinix MI2 - Miami",
    "city": "Miami",
    "state": "FL",
    "country": "US",
    "lat": 25.775869,
    "lng": -80.19313,
    "verified": false,
    "source": "community",
    "metadata": {
      "url": "https://www.equinix.com/locations/americas-colocation/united-states-colocation/miami-data-centers/mi2/",
      "address1": "36 NE 2nd St",
      "zipcode": "33132-2113",
      "clli": "MIAUFL",
      "peeringDbId": 558,
      "netCount": 28,
      "ixCount": 3,
      "carrierCount": 2
    }
  },
  {
    "id": "pdb-561",
    "provider": "365 Data Centers",
    "providerType": "colocation",
    "name": "365 Data Centers Nashville (NA1)",
    "displayName": "365 Data Centers Nashville (NA1)",
    "city": "Nashville",
    "state": "TN",
    "country": "US",
    "lat": 36.162626,
    "lng": -86.778674,
    "verified": false,
    "source": "community",
    "metadata": {
      "url": "https://www.365datacenters.com/nashville-data-center/",
      "address1": "147 Fourth Avenue",
      "zipcode": "37219",
      "peeringDbId": 561,
      "netCount": 22,
      "ixCount": 2,
      "carrierCount": 2
    }
  },
  {
    "id": "pdb-572",
    "provider": "Iron Mountain Data Centers",
    "providerType": "colocation",
    "name": "Iron Mountain Data Center - Phoenix (AZP-1)",
    "displayName": "Iron Mountain Data Center - Phoenix (AZP-1)",
    "city": "Phoenix",
    "state": "AZ",
    "country": "US",
    "lat": 33.454411,
    "lng": -111.976435,
    "verified": false,
    "source": "community",
    "metadata": {
      "url": "https://www.ironmountain.com/digital-transformation/data-centers/locations/phoenix-data-center",
      "address1": "615 N. 48th Street",
      "zipcode": "85008",
      "clli": "PHNHAZ",
      "peeringDbId": 572,
      "netCount": 30,
      "ixCount": 3,
      "carrierCount": 3
    }
  },
  {
    "id": "pdb-575",
    "provider": "1623 Farnam",
    "providerType": "colocation",
    "name": "1623 Farnam - Omaha",
    "displayName": "1623 Farnam - Omaha",
    "city": "Omaha",
    "state": "NE",
    "country": "US",
    "lat": 41.257352,
    "lng": -95.938191,
    "verified": false,
    "source": "community",
    "metadata": {
      "url": "http://www.1623Farnam.com",
      "address1": "1623 Farnam St.",
      "zipcode": "68102",
      "clli": "OMAHNE",
      "peeringDbId": 575,
      "netCount": 46,
      "ixCount": 1,
      "carrierCount": 7
    }
  },
  {
    "id": "pdb-581",
    "provider": "QTS Realty Trust",
    "providerType": "colocation",
    "name": "QTS Atlanta-Metro (ATL1)",
    "displayName": "QTS Atlanta-Metro (ATL1)",
    "city": "Atlanta",
    "state": "GA",
    "country": "US",
    "lat": 33.777526,
    "lng": -84.421036,
    "verified": false,
    "source": "community",
    "metadata": {
      "url": "http://www.qtsdatacenters.com/data-centers/atlanta-metro",
      "address1": "1033 Jefferson St. NW",
      "zipcode": "30318",
      "clli": "ATLNGA",
      "peeringDbId": 581,
      "netCount": 21,
      "ixCount": 2,
      "carrierCount": 3
    }
  },
  {
    "id": "pdb-668",
    "provider": "CoreSite",
    "providerType": "colocation",
    "name": "CoreSite - Reston (VA1)",
    "displayName": "CoreSite - Reston (VA1)",
    "city": "Reston",
    "state": "VA",
    "country": "US",
    "lat": 38.950631,
    "lng": -77.364541,
    "verified": false,
    "source": "community",
    "metadata": {
      "url": "http://www.coresite.com",
      "address1": "12100 Sunrise Valley Drive",
      "zipcode": "20191",
      "clli": "RSTNVA14",
      "peeringDbId": 668,
      "netCount": 78,
      "ixCount": 6,
      "carrierCount": 5
    }
  },
  {
    "id": "pdb-669",
    "provider": "CoreSite",
    "providerType": "colocation",
    "name": "CoreSite - Miami (MI1)",
    "displayName": "CoreSite - Miami (MI1)",
    "city": "Miami",
    "state": "FL",
    "country": "US",
    "lat": 25.797548,
    "lng": -80.230038,
    "verified": false,
    "source": "community",
    "metadata": {
      "url": "http://www.coresite.com",
      "address1": "2115 NW 22nd Street",
      "zipcode": "33142",
      "clli": "MIASFLVR",
      "peeringDbId": 669,
      "netCount": 22,
      "ixCount": 2,
      "carrierCount": 2
    }
  },
  {
    "id": "pdb-670",
    "provider": "CoreSite",
    "providerType": "colocation",
    "name": "CoreSite - New York (NY1)",
    "displayName": "CoreSite - New York (NY1)",
    "city": "New York",
    "state": "NY",
    "country": "US",
    "lat": 40.72,
    "lng": -74.004561,
    "verified": false,
    "source": "community",
    "metadata": {
      "url": "http://www.coresite.com",
      "address1": "32 Avenue of the Americas",
      "zipcode": "10013",
      "clli": "NYCMNYAA",
      "peeringDbId": 670,
      "netCount": 36,
      "ixCount": 4,
      "carrierCount": 2
    }
  },
  {
    "id": "pdb-679",
    "provider": "ColoHouse Premier Datacenter",
    "providerType": "colocation",
    "name": "ColoHouse Miami",
    "displayName": "ColoHouse Miami",
    "city": "Miami",
    "state": "FL",
    "country": "US",
    "lat": 25.775811,
    "lng": -80.192959,
    "verified": false,
    "source": "community",
    "metadata": {
      "url": "http://www.colohouse.com/",
      "address1": "36 NE 2nd Street",
      "zipcode": "33132",
      "peeringDbId": 679,
      "netCount": 43,
      "ixCount": 3,
      "carrierCount": 1
    }
  },
  {
    "id": "pdb-702",
    "provider": "Hurricane Electric",
    "providerType": "colocation",
    "name": "Hurricane Electric Fremont 1",
    "displayName": "Hurricane Electric Fremont 1",
    "city": "Fremont",
    "state": "CA",
    "country": "US",
    "lat": 37.489879,
    "lng": -121.931012,
    "verified": false,
    "source": "community",
    "metadata": {
      "url": "http://he.net/colocation.html",
      "address1": "760 Mission Ct",
      "zipcode": "94539",
      "clli": "FRMTCA",
      "peeringDbId": 702,
      "netCount": 43,
      "ixCount": 3,
      "carrierCount": 0
    }
  },
  {
    "id": "pdb-737",
    "provider": "Telehouse - Global Data Centers",
    "providerType": "colocation",
    "name": "Telehouse - Teleport Center (New York)",
    "displayName": "Telehouse - Teleport Center (New York)",
    "city": "Staten Island",
    "state": "NY",
    "country": "US",
    "lat": 40.606231,
    "lng": -74.173722,
    "verified": false,
    "source": "community",
    "metadata": {
      "url": "http://www.telehouse.com",
      "address1": "The Teleport",
      "address2": "7 Teleport Drive",
      "zipcode": "10311",
      "clli": "NYCRNY",
      "peeringDbId": 737,
      "netCount": 40,
      "ixCount": 3,
      "carrierCount": 0
    }
  },
  {
    "id": "pdb-803",
    "provider": "Cologix",
    "providerType": "colocation",
    "name": "Cologix MIN1",
    "displayName": "Cologix MIN1",
    "city": "Minneapolis",
    "state": "MN",
    "country": "US",
    "lat": 44.971408,
    "lng": -93.25458,
    "verified": false,
    "source": "community",
    "metadata": {
      "url": "http://www.cologix.com/",
      "address1": "511 11th Ave S Ste 100",
      "zipcode": "55415-1567",
      "clli": "MPLSMN",
      "peeringDbId": 803,
      "netCount": 76,
      "ixCount": 6,
      "carrierCount": 9
    }
  },
  {
    "id": "pdb-917",
    "provider": "PhoenixNAP",
    "providerType": "colocation",
    "name": "PhoenixNAP",
    "displayName": "PhoenixNAP",
    "city": "Phoenix",
    "state": "AZ",
    "country": "US",
    "lat": 33.41601,
    "lng": -112.009445,
    "verified": false,
    "source": "community",
    "metadata": {
      "url": "https://phoenixnap.com/colocation/phoenix",
      "address1": "3402 E. University Dr.",
      "zipcode": "85034",
      "peeringDbId": 917,
      "netCount": 75,
      "ixCount": 3,
      "carrierCount": 3
    }
  },
  {
    "id": "pdb-940",
    "provider": "Equinix",
    "providerType": "colocation",
    "name": "Equinix AT1 - Atlanta",
    "displayName": "Equinix AT1 - Atlanta",
    "city": "Atlanta",
    "state": "GA",
    "country": "US",
    "lat": 33.758567,
    "lng": -84.387874,
    "verified": false,
    "source": "community",
    "metadata": {
      "url": "http://www.equinix.com/",
      "address1": "180 Peachtree",
      "address2": "2nd and 6th Floors",
      "zipcode": "30303",
      "clli": "ATLNGA",
      "peeringDbId": 940,
      "netCount": 58,
      "ixCount": 3,
      "carrierCount": 6
    }
  },
  {
    "id": "pdb-968",
    "provider": "Equinix",
    "providerType": "colocation",
    "name": "Equinix CH3 - Elk Grove",
    "displayName": "Equinix CH3 - Elk Grove",
    "city": "Elk Grove Village",
    "state": "IL",
    "country": "US",
    "lat": 42.001171,
    "lng": -87.954882,
    "verified": false,
    "source": "community",
    "metadata": {
      "url": "http://www.equinix.com",
      "address1": "1905 Lunt Ave",
      "zipcode": "60007",
      "peeringDbId": 968,
      "netCount": 44,
      "ixCount": 2,
      "carrierCount": 3
    }
  },
  {
    "id": "pdb-1112",
    "provider": "RagingWire Data Centers - NTT",
    "providerType": "colocation",
    "name": "RagingWire VA1 - NTT",
    "displayName": "RagingWire VA1 - NTT",
    "city": "Ashburn",
    "state": "VA",
    "country": "US",
    "lat": 39.022561,
    "lng": -77.455012,
    "verified": false,
    "source": "community",
    "metadata": {
      "url": "http://www.ragingwire.com",
      "address1": "44664 Guilford Drive",
      "zipcode": "20147",
      "clli": "CLPPVA01",
      "peeringDbId": 1112,
      "netCount": 25,
      "ixCount": 1,
      "carrierCount": 2
    }
  },
  {
    "id": "pdb-1177",
    "provider": "QTS Realty Trust",
    "providerType": "colocation",
    "name": "QTS Piscataway (PNJ1)",
    "displayName": "QTS Piscataway (PNJ1)",
    "city": "Piscataway",
    "state": "NJ",
    "country": "US",
    "lat": 40.556905,
    "lng": -74.484735,
    "verified": false,
    "source": "community",
    "metadata": {
      "url": "http://www.qtsdatacenters.com/data-centers/piscataway",
      "address1": "101 Possumtown Road",
      "zipcode": "08854",
      "peeringDbId": 1177,
      "netCount": 35,
      "ixCount": 3,
      "carrierCount": 2
    }
  },
  {
    "id": "pdb-1223",
    "provider": "DataBank",
    "providerType": "colocation",
    "name": "DataBank Ashburn (IAD1)",
    "displayName": "DataBank Ashburn (IAD1)",
    "city": "Ashburn",
    "state": "VA",
    "country": "US",
    "lat": 39.015966,
    "lng": -77.48158,
    "verified": false,
    "source": "community",
    "metadata": {
      "url": "https://www.databank.com/data-centers/northern-virginia/ashburn-campus/ashburn/",
      "address1": "21635 Red Rum Dr.",
      "zipcode": "20147",
      "peeringDbId": 1223,
      "netCount": 34,
      "ixCount": 2,
      "carrierCount": 2
    }
  },
  {
    "id": "pdb-1272",
    "provider": "Telehouse - Global Data Centers",
    "providerType": "colocation",
    "name": "Telehouse - New York Chelsea",
    "displayName": "Telehouse - New York Chelsea",
    "city": "New York",
    "state": "NY",
    "country": "US",
    "lat": 40.743209,
    "lng": -74.007954,
    "verified": false,
    "source": "community",
    "metadata": {
      "url": "http://www.telehouse.com/",
      "address1": "85 10th Avenue",
      "zipcode": "10011",
      "peeringDbId": 1272,
      "netCount": 44,
      "ixCount": 5,
      "carrierCount": 0
    }
  },
  {
    "id": "pdb-1337",
    "provider": "CoreSite",
    "providerType": "colocation",
    "name": "CoreSite - Atlanta (AT1)",
    "displayName": "CoreSite - Atlanta (AT1)",
    "city": "Atlanta",
    "state": "GA",
    "country": "US",
    "lat": 33.755801,
    "lng": -84.390928,
    "verified": false,
    "source": "community",
    "metadata": {
      "url": "http://www.coresite.com",
      "address1": "55 Marietta Street",
      "address2": "Suites 570 & 800",
      "zipcode": "30303",
      "clli": "ATLNGAMA",
      "peeringDbId": 1337,
      "netCount": 70,
      "ixCount": 4,
      "carrierCount": 4
    }
  },
  {
    "id": "pdb-1384",
    "provider": "Digital Realty",
    "providerType": "colocation",
    "name": "Digital Realty CHI (2200 Busse Rd.)",
    "displayName": "Digital Realty CHI (2200 Busse Rd.)",
    "city": "Elk Grove Village",
    "state": "IL",
    "country": "US",
    "lat": 41.994269,
    "lng": -87.962053,
    "verified": false,
    "source": "community",
    "metadata": {
      "url": "https://www.digitalrealty.com",
      "address1": "2200 Busse Rd.",
      "zipcode": "60007",
      "peeringDbId": 1384,
      "netCount": 20,
      "ixCount": 2,
      "carrierCount": 1
    }
  },
  {
    "id": "pdb-1476",
    "provider": "DataBank",
    "providerType": "colocation",
    "name": "Databank Houston West (HOU1) (HOU2)",
    "displayName": "Databank Houston West (HOU1) (HOU2)",
    "city": "Houston",
    "state": "TX",
    "country": "US",
    "lat": 29.844182,
    "lng": -95.556656,
    "verified": false,
    "source": "community",
    "metadata": {
      "url": "http://www.databank.com",
      "address1": "5150 & 5170 Westway Park Blvd",
      "zipcode": "77041",
      "peeringDbId": 1476,
      "netCount": 33,
      "ixCount": 2,
      "carrierCount": 3
    }
  },
  {
    "id": "pdb-1517",
    "provider": "60 Hudson Owner",
    "providerType": "colocation",
    "name": "60 Hudson",
    "displayName": "60 Hudson",
    "city": "New York",
    "state": "NY",
    "country": "US",
    "lat": 40.717723,
    "lng": -74.008299,
    "verified": false,
    "source": "community",
    "metadata": {
      "url": "https://60hudsonstreet.com/",
      "address1": "60 Hudson St.",
      "zipcode": "10013",
      "clli": "NYCMNY",
      "peeringDbId": 1517,
      "netCount": 28,
      "ixCount": 2,
      "carrierCount": 2
    }
  },
  {
    "id": "pdb-1619",
    "provider": "CoreSite",
    "providerType": "colocation",
    "name": "CoreSite - Santa Clara (SV4)",
    "displayName": "CoreSite - Santa Clara (SV4)",
    "city": "Santa Clara",
    "state": "CA",
    "country": "US",
    "lat": 37.376259,
    "lng": -121.970705,
    "verified": false,
    "source": "community",
    "metadata": {
      "url": "http://www.coresite.com",
      "address1": "2972 Stender Way",
      "zipcode": "95054",
      "clli": "SNTCCAQM",
      "peeringDbId": 1619,
      "netCount": 21,
      "ixCount": 3,
      "carrierCount": 2
    }
  },
  {
    "id": "pdb-1671",
    "provider": "CoreSite",
    "providerType": "colocation",
    "name": "CoreSite - Secaucus (NY2)",
    "displayName": "CoreSite - Secaucus (NY2)",
    "city": "Secaucus",
    "state": "NJ",
    "country": "US",
    "lat": 40.784501,
    "lng": -74.065119,
    "verified": false,
    "source": "community",
    "metadata": {
      "url": "http://www.coresite.com",
      "address1": "2 Emerson Lane",
      "zipcode": "07094",
      "clli": "SCCSNJ",
      "peeringDbId": 1671,
      "netCount": 30,
      "ixCount": 3,
      "carrierCount": 2
    }
  },
  {
    "id": "pdb-1707",
    "provider": "710facility@ittns.northwestern.edu",
    "providerType": "colocation",
    "name": "Northwestern University co-location facility",
    "displayName": "Northwestern University co-location facility",
    "city": "Chicago",
    "state": "IL",
    "country": "US",
    "lat": 41.895233,
    "lng": -87.616861,
    "verified": false,
    "source": "community",
    "metadata": {
      "url": "http://www.startap.net/starlight/ENGINEERING/network_operations.html",
      "address1": "710 N. Lake Shore Drive",
      "zipcode": "60611",
      "peeringDbId": 1707,
      "netCount": 20,
      "ixCount": 0,
      "carrierCount": 0
    }
  },
  {
    "id": "pdb-1816",
    "provider": "H5 Data Centers",
    "providerType": "colocation",
    "name": "H5 Data Centers New York",
    "displayName": "H5 Data Centers New York",
    "city": "New York",
    "state": "NY",
    "country": "US",
    "lat": 40.726868,
    "lng": -74.007703,
    "verified": false,
    "source": "community",
    "metadata": {
      "url": "https://h5datacenters.com/new-york-colocation.html",
      "address1": "325 Hudson Street",
      "zipcode": "10013",
      "peeringDbId": 1816,
      "netCount": 26,
      "ixCount": 3,
      "carrierCount": 0
    }
  },
  {
    "id": "pdb-1917",
    "provider": "EdgeConneX",
    "providerType": "colocation",
    "name": "EdgeConneX Phoenix (EDCPHX01)",
    "displayName": "EdgeConneX Phoenix (EDCPHX01)",
    "city": "Tempe",
    "state": "AZ",
    "country": "US",
    "lat": 33.395544,
    "lng": -111.97012,
    "verified": false,
    "source": "community",
    "metadata": {
      "url": "http://www.edgeconnex.com",
      "address1": "3011 S. 52nd St",
      "zipcode": "85282",
      "peeringDbId": 1917,
      "netCount": 39,
      "ixCount": 3,
      "carrierCount": 2
    }
  },
  {
    "id": "pdb-1922",
    "provider": "EdgeConneX",
    "providerType": "colocation",
    "name": "EdgeConneX Portland (EDCPOR01)",
    "displayName": "EdgeConneX Portland (EDCPOR01)",
    "city": "Hillsboro",
    "state": "OR",
    "country": "US",
    "lat": 45.548296,
    "lng": -122.907473,
    "verified": false,
    "source": "community",
    "metadata": {
      "url": "http://www.edgeconnex.com",
      "address1": "6327 NE Evergreen Parkway",
      "address2": "Building C",
      "zipcode": "97124",
      "clli": "HLBOORNF",
      "peeringDbId": 1922,
      "netCount": 25,
      "ixCount": 2,
      "carrierCount": 2
    }
  },
  {
    "id": "pdb-1941",
    "provider": "Lifeline Data Centers",
    "providerType": "colocation",
    "name": "Lifeline Eastgate",
    "displayName": "Lifeline Eastgate",
    "city": "Indianapolis",
    "state": "IN",
    "country": "US",
    "lat": 39.775998,
    "lng": -86.04275,
    "verified": false,
    "source": "community",
    "metadata": {
      "url": "http://www.lifelinedatacenters.com/",
      "address1": "401 N Shadeland Ave.",
      "zipcode": "46219",
      "peeringDbId": 1941,
      "netCount": 29,
      "ixCount": 2,
      "carrierCount": 2
    }
  },
  {
    "id": "pdb-1946",
    "provider": "Cologix",
    "providerType": "colocation",
    "name": "Cologix JAX1",
    "displayName": "Cologix JAX1",
    "city": "Jacksonville",
    "state": "FL",
    "country": "US",
    "lat": 30.331403,
    "lng": -81.66242,
    "verified": false,
    "source": "community",
    "metadata": {
      "url": "http://www.cologix.com",
      "address1": "421 W. Church St.",
      "peeringDbId": 1946,
      "netCount": 33,
      "ixCount": 1,
      "carrierCount": 2
    }
  },
  {
    "id": "pdb-1947",
    "provider": "Digital Realty",
    "providerType": "colocation",
    "name": "Digital Realty MIA (36 NE 2nd St)",
    "displayName": "Digital Realty MIA (36 NE 2nd St)",
    "city": "Miami",
    "state": "FL",
    "country": "US",
    "lat": 25.775811,
    "lng": -80.192959,
    "verified": false,
    "source": "community",
    "metadata": {
      "url": "https://www.digitalrealty.com",
      "address1": "36 NE 2nd Street",
      "zipcode": "33132",
      "peeringDbId": 1947,
      "netCount": 32,
      "ixCount": 4,
      "carrierCount": 1
    }
  },
  {
    "id": "pdb-1976",
    "provider": "MDC Data Centers",
    "providerType": "colocation",
    "name": "MDC McAllen",
    "displayName": "MDC McAllen",
    "city": "McAllen",
    "state": "TX",
    "country": "US",
    "lat": 26.201918,
    "lng": -98.231633,
    "verified": false,
    "source": "community",
    "metadata": {
      "url": "http://www.mdcdatacenters.com",
      "address1": "422 S 11th St",
      "address2": "200 S 10th St",
      "zipcode": "78501-4800",
      "clli": "MCALTX",
      "peeringDbId": 1976,
      "netCount": 28,
      "ixCount": 1,
      "carrierCount": 2
    }
  },
  {
    "id": "pdb-1978",
    "provider": "Netrality Data Centers",
    "providerType": "colocation",
    "name": "Netrality St. Louis - 210 N Tucker",
    "displayName": "Netrality St. Louis - 210 N Tucker",
    "city": "St. Louis",
    "state": "MO",
    "country": "US",
    "lat": 38.629332,
    "lng": -90.197305,
    "verified": false,
    "source": "community",
    "metadata": {
      "url": "https://netrality.com/data-center/210-north-tucker-st-louis/",
      "address1": "210 N Tucker - Netrality Data Center Meet Me Room",
      "address2": "210 N Tucker Boulevard",
      "zipcode": "63101",
      "peeringDbId": 1978,
      "netCount": 41,
      "ixCount": 5,
      "carrierCount": 3
    }
  },
  {
    "id": "pdb-2018",
    "provider": "Netrality Data Centers",
    "providerType": "colocation",
    "name": "Netrality - Indy Telcom Center - 701 W. Henry",
    "displayName": "Netrality - Indy Telcom Center - 701 W. Henry",
    "city": "Indianapolis",
    "state": "IN",
    "country": "US",
    "lat": 39.759534,
    "lng": -86.170711,
    "verified": false,
    "source": "community",
    "metadata": {
      "url": "https://netrality.com/data-center/701-indy-telcom-center-indianapolis/",
      "address1": "701 W. Henry St.",
      "zipcode": "46225",
      "peeringDbId": 2018,
      "netCount": 21,
      "ixCount": 2,
      "carrierCount": 1
    }
  },
  {
    "id": "pdb-2079",
    "provider": "910Telecom",
    "providerType": "colocation",
    "name": "910Telecom Denver",
    "displayName": "910Telecom Denver",
    "city": "Denver",
    "state": "CO",
    "country": "US",
    "lat": 39.745636,
    "lng": -104.995636,
    "verified": false,
    "source": "community",
    "metadata": {
      "url": "http://910telecom.com/Carriers",
      "address1": "910-15th Street",
      "zipcode": "80202-2912",
      "clli": "DNVRCO",
      "peeringDbId": 2079,
      "netCount": 57,
      "ixCount": 1,
      "carrierCount": 4
    }
  },
  {
    "id": "pdb-2084",
    "provider": "123.Net",
    "providerType": "colocation",
    "name": "123.NET - DC1 - 24700 Northwestern Hwy.",
    "displayName": "123.NET - DC1 - 24700 Northwestern Hwy.",
    "city": "Southfield",
    "state": "MI",
    "country": "US",
    "lat": 42.471634,
    "lng": -83.238056,
    "verified": false,
    "source": "community",
    "metadata": {
      "url": "http://www.123.net",
      "address1": "24700 Northwestern Hwy.",
      "zipcode": "48075",
      "clli": "SFLDMI",
      "peeringDbId": 2084,
      "netCount": 55,
      "ixCount": 2,
      "carrierCount": 2
    }
  },
  {
    "id": "pdb-2086",
    "provider": "365 Data Centers",
    "providerType": "colocation",
    "name": "365 Data Centers Tampa (TA1)",
    "displayName": "365 Data Centers Tampa (TA1)",
    "city": "Tampa",
    "state": "FL",
    "country": "US",
    "lat": 27.949981,
    "lng": -82.458383,
    "verified": false,
    "source": "community",
    "metadata": {
      "url": "https://www.365datacenters.com/tampa-data-center/",
      "address1": "655 North Franklin St",
      "zipcode": "33062",
      "peeringDbId": 2086,
      "netCount": 28,
      "ixCount": 2,
      "carrierCount": 3
    }
  },
  {
    "id": "pdb-2111",
    "provider": "Netrality Data Centers",
    "providerType": "colocation",
    "name": "Netrality Philadelphia - 401 N Broad",
    "displayName": "Netrality Philadelphia - 401 N Broad",
    "city": "Philadelphia",
    "state": "PA",
    "country": "US",
    "lat": 39.959889,
    "lng": -75.161752,
    "verified": false,
    "source": "community",
    "metadata": {
      "url": "https://netrality.com/data-center/401-north-broad-philadelphia/",
      "address1": "401 N Broad Street - Netrality Data Center Meet Me Room",
      "zipcode": "19108",
      "clli": "PHLAPAFG",
      "peeringDbId": 2111,
      "netCount": 48,
      "ixCount": 3,
      "carrierCount": 2
    }
  },
  {
    "id": "pdb-2261",
    "provider": "Equinix",
    "providerType": "colocation",
    "name": "Equinix DA6 - Dallas",
    "displayName": "Equinix DA6 - Dallas",
    "city": "Dallas",
    "state": "TX",
    "country": "US",
    "lat": 32.800748,
    "lng": -96.819412,
    "verified": false,
    "source": "community",
    "metadata": {
      "url": "https://www.equinix.com/locations/americas-colocation/united-states-colocation/dallas-data-centers/da6/",
      "address1": "1950 N Stemmons Fwy",
      "zipcode": "75207-3134",
      "clli": "DLLUTX",
      "peeringDbId": 2261,
      "netCount": 77,
      "ixCount": 6,
      "carrierCount": 6
    }
  },
  {
    "id": "pdb-2365",
    "provider": "QTS Realty Trust",
    "providerType": "colocation",
    "name": "QTS Richmond (RIC1)",
    "displayName": "QTS Richmond (RIC1)",
    "city": "Sandston",
    "state": "VA",
    "country": "US",
    "lat": 37.488073,
    "lng": -77.244177,
    "verified": false,
    "source": "community",
    "metadata": {
      "url": "http://www.qtsdatacenters.com/data-centers/richmond",
      "address1": "6000 Technology Blvd",
      "zipcode": "23150",
      "peeringDbId": 2365,
      "netCount": 22,
      "ixCount": 3,
      "carrierCount": 3
    }
  },
  {
    "id": "pdb-2375",
    "provider": "Cologix",
    "providerType": "colocation",
    "name": "Cologix DAL1",
    "displayName": "Cologix DAL1",
    "city": "Dallas",
    "state": "TX",
    "country": "US",
    "lat": 32.800748,
    "lng": -96.819412,
    "verified": false,
    "source": "community",
    "metadata": {
      "url": "http://www.cologix.com",
      "address1": "1950 N Stemmons Fwy",
      "zipcode": "75207-3134",
      "peeringDbId": 2375,
      "netCount": 23,
      "ixCount": 2,
      "carrierCount": 2
    }
  },
  {
    "id": "pdb-2377",
    "provider": "Cologix",
    "providerType": "colocation",
    "name": "Cologix COL1",
    "displayName": "Cologix COL1",
    "city": "Columbus",
    "state": "OH",
    "country": "US",
    "lat": 40.116491,
    "lng": -83.001985,
    "verified": false,
    "source": "community",
    "metadata": {
      "url": "http://www.cologix.com",
      "address1": "555 Scherers Court",
      "zipcode": "43085",
      "clli": "CLMBOH",
      "peeringDbId": 2377,
      "netCount": 29,
      "ixCount": 2,
      "carrierCount": 1
    }
  },
  {
    "id": "pdb-2378",
    "provider": "Cologix",
    "providerType": "colocation",
    "name": "Cologix COL2",
    "displayName": "Cologix COL2",
    "city": "Columbus",
    "state": "OH",
    "country": "US",
    "lat": 40.116491,
    "lng": -83.001985,
    "verified": false,
    "source": "community",
    "metadata": {
      "url": "http://www.cologix.com",
      "address1": "555 Scherers Court",
      "zipcode": "43085",
      "peeringDbId": 2378,
      "netCount": 23,
      "ixCount": 2,
      "carrierCount": 2
    }
  },
  {
    "id": "pdb-2445",
    "provider": "Flexential",
    "providerType": "colocation",
    "name": "Flexential - Salt Lake City/Downtown (SLC04)",
    "displayName": "Flexential - Salt Lake City/Downtown (SLC04)",
    "city": "Salt Lake City",
    "state": "UT",
    "country": "US",
    "lat": 40.756302,
    "lng": -111.954307,
    "verified": false,
    "source": "community",
    "metadata": {
      "url": "https://www.flexential.com/",
      "address1": "572 S Delong St",
      "zipcode": "84101",
      "peeringDbId": 2445,
      "netCount": 24,
      "ixCount": 3,
      "carrierCount": 1
    }
  },
  {
    "id": "pdb-2447",
    "provider": "Flexential",
    "providerType": "colocation",
    "name": "Flexential - Portland/Hillsboro 2 (PDX02)",
    "displayName": "Flexential - Portland/Hillsboro 2 (PDX02)",
    "city": "Hillsboro",
    "state": "OR",
    "country": "US",
    "lat": 45.557854,
    "lng": -122.917023,
    "verified": false,
    "source": "community",
    "metadata": {
      "url": "https://www.flexential.com/",
      "address1": "5737 NE Huffman St",
      "zipcode": "97124",
      "peeringDbId": 2447,
      "netCount": 23,
      "ixCount": 1,
      "carrierCount": 3
    }
  },
  {
    "id": "pdb-2526",
    "provider": "DRFortress",
    "providerType": "colocation",
    "name": "DRFortress HNL",
    "displayName": "DRFortress HNL",
    "city": "Honolulu",
    "state": "HI",
    "country": "US",
    "lat": 21.335678,
    "lng": -157.917855,
    "verified": false,
    "source": "community",
    "metadata": {
      "url": "http://www.drfortress.com",
      "address1": "3375 Koapaka St",
      "zipcode": "96819",
      "peeringDbId": 2526,
      "netCount": 26,
      "ixCount": 1,
      "carrierCount": 0
    }
  },
  {
    "id": "pdb-2578",
    "provider": "Equinix",
    "providerType": "colocation",
    "name": "Equinix DA2 - Dallas",
    "displayName": "Equinix DA2 - Dallas",
    "city": "Dallas",
    "state": "TX",
    "country": "US",
    "lat": 32.800955,
    "lng": -96.81955,
    "verified": false,
    "source": "community",
    "metadata": {
      "url": "https://www.equinix.com/locations/americas-colocation/united-states-colocation/dallas-data-centers/da2/",
      "address1": "1950 N Stemmons Fwy",
      "zipcode": "75207",
      "clli": "DLLSTX",
      "peeringDbId": 2578,
      "netCount": 49,
      "ixCount": 5,
      "carrierCount": 6
    }
  },
  {
    "id": "pdb-2763",
    "provider": "CoreSite",
    "providerType": "colocation",
    "name": "CoreSite - Reston (VA2)",
    "displayName": "CoreSite - Reston (VA2)",
    "city": "Reston",
    "state": "VA",
    "country": "US",
    "lat": 38.948974,
    "lng": -77.364545,
    "verified": false,
    "source": "community",
    "metadata": {
      "url": "http://www.coresite.com",
      "address1": "12098 Sunrise Valley Drive",
      "zipcode": "20191",
      "clli": "RSTNVA14",
      "peeringDbId": 2763,
      "netCount": 20,
      "ixCount": 3,
      "carrierCount": 2
    }
  },
  {
    "id": "pdb-2861",
    "provider": "VPLS",
    "providerType": "colocation",
    "name": "Evocative DA4",
    "displayName": "Evocative DA4",
    "city": "Dallas",
    "state": "TX",
    "country": "US",
    "lat": 32.837967,
    "lng": -96.878307,
    "verified": false,
    "source": "community",
    "metadata": {
      "url": "https://www.evocative.com/",
      "address1": "1515 Round Table Dr",
      "zipcode": "75247",
      "peeringDbId": 2861,
      "netCount": 49,
      "ixCount": 4,
      "carrierCount": 2
    }
  },
  {
    "id": "pdb-2975",
    "provider": "H5 Data Centers",
    "providerType": "colocation",
    "name": "H5 Data Centers Cleveland",
    "displayName": "H5 Data Centers Cleveland",
    "city": "Cleveland",
    "state": "OH",
    "country": "US",
    "lat": 41.506167,
    "lng": -81.68395,
    "verified": false,
    "source": "community",
    "metadata": {
      "url": "http://h5datacenters.com/",
      "address1": "1525 Rockwell Ave",
      "zipcode": "44114",
      "clli": "CLEYOHIG",
      "peeringDbId": 2975,
      "netCount": 20,
      "ixCount": 5,
      "carrierCount": 3
    }
  },
  {
    "id": "pdb-3312",
    "provider": "Cologix",
    "providerType": "colocation",
    "name": "Cologix MIN3",
    "displayName": "Cologix MIN3",
    "city": "Minneapolis",
    "state": "MN",
    "country": "US",
    "lat": 44.971408,
    "lng": -93.25458,
    "verified": false,
    "source": "community",
    "metadata": {
      "url": "https://www.cologix.com",
      "address1": "511 11th Ave S Ste 200",
      "zipcode": "55415-1537",
      "clli": "MPLSMN",
      "peeringDbId": 3312,
      "netCount": 22,
      "ixCount": 3,
      "carrierCount": 3
    }
  },
  {
    "id": "pdb-3344",
    "provider": "CoreSite",
    "providerType": "colocation",
    "name": "CoreSite - Santa Clara (SV7)",
    "displayName": "CoreSite - Santa Clara (SV7)",
    "city": "Santa Clara",
    "state": "CA",
    "country": "US",
    "lat": 37.3761,
    "lng": -121.973055,
    "verified": false,
    "source": "community",
    "metadata": {
      "url": "http://www.coresite.com",
      "address1": "3020 Coronado Drive",
      "zipcode": "95054",
      "clli": "SNTCCA",
      "peeringDbId": 3344,
      "netCount": 20,
      "ixCount": 2,
      "carrierCount": 0
    }
  },
  {
    "id": "pdb-3398",
    "provider": "Netrality Data Centers",
    "providerType": "colocation",
    "name": "Netrality Chicago - 717 S Wells",
    "displayName": "Netrality Chicago - 717 S Wells",
    "city": "Chicago",
    "state": "IL",
    "country": "US",
    "lat": 41.872911,
    "lng": -87.63327,
    "verified": false,
    "source": "community",
    "metadata": {
      "url": "https://netrality.com/locations/data-center-chicago/",
      "address1": "717 S Wells - Netrality Data Center Meet Me Room",
      "address2": "717 S Wells Street",
      "zipcode": "60607",
      "peeringDbId": 3398,
      "netCount": 22,
      "ixCount": 4,
      "carrierCount": 2
    }
  },
  {
    "id": "pdb-3725",
    "provider": "Digital Realty",
    "providerType": "colocation",
    "name": "Digital Realty ATL (250 Williams)",
    "displayName": "Digital Realty ATL (250 Williams)",
    "city": "Atlanta",
    "state": "GA",
    "country": "US",
    "lat": 33.761611,
    "lng": -84.391309,
    "verified": false,
    "source": "community",
    "metadata": {
      "url": "https://www.digitalrealty.com",
      "address1": "250 Williams St NW",
      "zipcode": "30303",
      "peeringDbId": 3725,
      "netCount": 72,
      "ixCount": 3,
      "carrierCount": 6
    }
  },
  {
    "id": "pdb-4284",
    "provider": "DataBank",
    "providerType": "colocation",
    "name": "DataBank Dallas (DFW1)",
    "displayName": "DataBank Dallas (DFW1)",
    "city": "Dallas",
    "state": "TX",
    "country": "US",
    "lat": 32.778287,
    "lng": -96.7984,
    "verified": false,
    "source": "community",
    "metadata": {
      "url": "https://www.databank.com/data-centers/dallas/dfw1/",
      "address1": "400 South Akard St",
      "zipcode": "75202",
      "peeringDbId": 4284,
      "netCount": 41,
      "ixCount": 4,
      "carrierCount": 3
    }
  },
  {
    "id": "pdb-4292",
    "provider": "DataBank",
    "providerType": "colocation",
    "name": "DataBank Pittsburgh (PIT1)",
    "displayName": "DataBank Pittsburgh (PIT1)",
    "city": "Pittsburgh",
    "state": "PA",
    "country": "US",
    "lat": 40.451062,
    "lng": -80.005186,
    "verified": false,
    "source": "community",
    "metadata": {
      "url": "https://www.databank.com/data-centers/pittsburgh/pit1/",
      "address1": "100 South Commons",
      "zipcode": "15212",
      "peeringDbId": 4292,
      "netCount": 38,
      "ixCount": 1,
      "carrierCount": 2
    }
  },
  {
    "id": "pdb-4293",
    "provider": "DataBank",
    "providerType": "colocation",
    "name": "DataBank Salt Lake City (SLC1)",
    "displayName": "DataBank Salt Lake City (SLC1)",
    "city": "Salt Lake City",
    "state": "UT",
    "country": "US",
    "lat": 40.768519,
    "lng": -111.885833,
    "verified": false,
    "source": "community",
    "metadata": {
      "url": "https://www.databank.com/data-centers/salt-lake-city/slc1/",
      "address1": "179 Social Hall Avenue",
      "zipcode": "84111",
      "peeringDbId": 4293,
      "netCount": 39,
      "ixCount": 3,
      "carrierCount": 3
    }
  },
  {
    "id": "pdb-4294",
    "provider": "DataBank",
    "providerType": "colocation",
    "name": "DataBank Salt Lake City (SLC2)",
    "displayName": "DataBank Salt Lake City (SLC2)",
    "city": "Bluffdale",
    "state": "UT",
    "country": "US",
    "lat": 40.480032,
    "lng": -111.904533,
    "verified": false,
    "source": "community",
    "metadata": {
      "url": "https://www.databank.com/data-centers/salt-lake-city/granite-point-campus/slc2/",
      "address1": "14944 Pony Express Road",
      "zipcode": "84065",
      "peeringDbId": 4294,
      "netCount": 22,
      "ixCount": 2,
      "carrierCount": 2
    }
  },
  {
    "id": "pdb-5183",
    "provider": "Serverhosh Internet Service",
    "providerType": "colocation",
    "name": "WowRack",
    "displayName": "WowRack",
    "city": "Tukwila",
    "state": "WA",
    "country": "US",
    "lat": 47.49312,
    "lng": -122.293712,
    "verified": false,
    "source": "community",
    "metadata": {
      "url": "https://www.wowrack.com",
      "address1": "12201 Tukwila International Blvd",
      "zipcode": "98168",
      "peeringDbId": 5183,
      "netCount": 21,
      "ixCount": 3,
      "carrierCount": 1
    }
  },
  {
    "id": "pdb-5693",
    "provider": "RACK59 Partners",
    "providerType": "colocation",
    "name": "RACK59 Data Center",
    "displayName": "RACK59 Data Center",
    "city": "Oklahoma City",
    "state": "OK",
    "country": "US",
    "lat": 35.466482,
    "lng": -97.649302,
    "verified": false,
    "source": "community",
    "metadata": {
      "url": "http://www.RACK59.com",
      "address1": "7725 W Reno Ave, Ste #304",
      "zipcode": "73127",
      "clli": "OKCYOKWE",
      "peeringDbId": 5693,
      "netCount": 25,
      "ixCount": 1,
      "carrierCount": 2
    }
  },
  {
    "id": "pdb-6011",
    "provider": "H5 Data Centers",
    "providerType": "colocation",
    "name": "H5 Data Centers San Antonio",
    "displayName": "H5 Data Centers San Antonio",
    "city": "San Antonio",
    "state": "TX",
    "country": "US",
    "lat": 29.429369,
    "lng": -98.486791,
    "verified": false,
    "source": "community",
    "metadata": {
      "url": "https://h5datacenters.com/san-antonio-data-center.html",
      "address1": "100 Taylor St",
      "zipcode": "78205",
      "peeringDbId": 6011,
      "netCount": 21,
      "ixCount": 1,
      "carrierCount": 2
    }
  },
  {
    "id": "pdb-9145",
    "provider": "NOCIX",
    "providerType": "colocation",
    "name": "1530 SWIFT - NOCIX",
    "displayName": "1530 SWIFT - NOCIX",
    "city": "North Kansas City",
    "state": "MO",
    "country": "US",
    "lat": 39.136878,
    "lng": -94.577558,
    "verified": false,
    "source": "community",
    "metadata": {
      "url": "http://www.1530swift.com",
      "statusDashboard": "http://speedtest.nocix.net",
      "address1": "1530 Swift St",
      "zipcode": "64116",
      "clli": "SFTNKCMO",
      "peeringDbId": 9145,
      "netCount": 150,
      "ixCount": 15,
      "carrierCount": 4
    }
  },
  {
    "id": "pdb-10674",
    "provider": "Energy Group Networks",
    "providerType": "colocation",
    "name": "OpenColo",
    "displayName": "OpenColo",
    "city": "Santa Clara",
    "state": "CA",
    "country": "US",
    "lat": 37.378892,
    "lng": -121.956248,
    "verified": false,
    "source": "community",
    "metadata": {
      "url": "https://opencolo.com/our-facility/",
      "address1": "3223 Kenneth St",
      "zipcode": "95054",
      "peeringDbId": 10674,
      "netCount": 22,
      "ixCount": 3,
      "carrierCount": 0
    }
  },
  {
    "id": "pdb-11762",
    "provider": "Equinix",
    "providerType": "colocation",
    "name": "Equinix DA11 - Dallas",
    "displayName": "Equinix DA11 - Dallas",
    "city": "Dallas",
    "state": "TX",
    "country": "US",
    "lat": 32.801347,
    "lng": -96.821074,
    "verified": false,
    "source": "community",
    "metadata": {
      "url": "https://www.equinix.com/locations/americas-colocation/united-states-colocation/dallas-data-centers/da11/",
      "address1": "1990 N Stemmons Fwy",
      "zipcode": "75207-3107",
      "clli": "DLLSTX",
      "peeringDbId": 11762,
      "netCount": 51,
      "ixCount": 3,
      "carrierCount": 4
    }
  },
  {
    "id": "pdb-14101",
    "provider": "FIBERSTATE",
    "providerType": "colocation",
    "name": "FIBERSTATE Salt Lake City (SLC1)",
    "displayName": "FIBERSTATE Salt Lake City (SLC1)",
    "city": "Draper",
    "state": "UT",
    "country": "US",
    "lat": 40.511814,
    "lng": -111.887967,
    "verified": false,
    "source": "community",
    "metadata": {
      "url": "https://fiberstate.com",
      "address1": "106 E 13200 S",
      "zipcode": "84020",
      "clli": "SLC",
      "peeringDbId": 14101,
      "netCount": 24,
      "ixCount": 1,
      "carrierCount": 0
    }
  }
]